DistanceToCenter,Total,Living,Kitchen,Repair,RoomsNumber,FurnitureExistence,FloorNumber,Year,NumberOfFloors,RoofType,BuildingType,OverlappingsType,MaterialWalls,PowerСlass,Chute,Playground,Sportsground,PowerSupply,ColdWaterSupply,HotWaterSupply,HeatSupply,GasSupply,WaterDisposal,FireSystem,Id,Adress,Region,City,District,Street,House,Latitude,Longitude,Cost
2571.60001,69,29,20,,3,False,9,,14,,,,,,False,False,False,,,,,,,False,29," Иваново,  Фрунзенский район, Тейковский пер /ПЛОЩАДЬПОБЕДЫ",Ивановская область, Иваново, Фрунзенский, Тейковский пер /ПЛОЩАДЬПОБЕДЫ,,56.9908674,40.9306046,3030000
3472.858343,56,38,6,,3,False,5,,5,,,,,,False,False,False,,,,,,,False,30," Иваново,  Ленинский район, Чапаева пер,17",Ивановская область, Иваново, Ленинский, Чапаева пер,17,56.972864,41.0072491,2400000
1551.497166,51,28,8,,2,False,9,,10,,,,,,False,False,False,,,,,,,False,31," Иваново,  Ленинский район, 10 Августа ул /улица.Колотилова, д.10",Ивановская область, Иваново, Ленинский, 10 Августа  /ица.Колотилова,д.10,56.99216,40.9952619,2800000
5193.642263,58,30,10,,2,False,1,1979,9,2,,3,5,,False,True,False,,,,,,,False,32," Иваново,  Ленинский район, Профессиональная ул,35",Ивановская область, Иваново, Ленинский, Профессиональная ,35,56.9509009,40.9821342,2300000
2082.520537,65,41,8,,3,False,5,1978,5,2,,3,5,,False,True,False,,,,,,,False,33," Иваново,  Фрунзенский район, Летчика Захарова ул,21",Ивановская область, Иваново, Фрунзенский, Летчика Захарова ,21,56.978515,40.9695419,2500000
1352.889657,50,30,8,,2,False,7,1981,9,2,,3,5,,True,True,False,,,,,,,False,34," Иваново,  Фрунзенский район, Кузнецова ул,54",Ивановская область, Иваново, Фрунзенский, Кузнецова ,54,57.0052636,40.9546967,2490000
2730.516903,106,38,46,,3,False,2,,5,,,,,,False,False,False,,,,,,,False,35," Иваново,  Ленинский район, Полевая 1-я ул,36а",Ивановская область, Иваново, Ленинский, Полевая 1-я ,36а,56.972821,40.976469,6700000
4868.942909,41,17,12,,1,False,11,1993,12,2,,3,5,,False,True,False,,,,,,,False,36," Иваново,  Октябрьский район, Революционная ул,26,корп.1",Ивановская область, Иваново, Октябрьский, Революционная ,26,57.0314455,40.9213908,2030000
2175.884094,32,9,4,,2,False,1,1959,3,1,,1,5,,False,True,False,,,,,,,False,37," Иваново,  Фрунзенский район, Нефедова ул,14",Ивановская область, Иваново, Фрунзенский, Нефедова ,14,56.9779656,40.9649649,1400000
405.8881673,52,22,13,,1,False,1,,8,,,,,,False,False,False,,,,,,,False,38," Иваново,  Фрунзенский район, Зеленая ул,39,корп.1",Ивановская область, Иваново, Фрунзенский, Зеленая ,39,56.9939806,40.9682539,2100000
3525.357774,57,27,12,,2,False,1,2017,9,2,,3,5,,True,True,False,,,,,,,False,39," Иваново,  Фрунзенский район, Ташкентская ул,110",Ивановская область, Иваново, Фрунзенский, Ташкентская ,110,56.9659747,40.9616183,2380000
4817.603077,41,19,11,,1,False,6,2006,10,2,,3,4,,False,True,False,,,,,,,False,40," Иваново,  Ленинский район, Куконковых ул,130",Ивановская область, Иваново, Ленинский, Куконковых ,130,56.9641097,41.0226166,2050000
405.8881673,120,65,30,,3,False,8,,8,,,,,,False,False,False,,,,,,,False,41," Иваново,  Фрунзенский район, Зеленая ул,39,корп.1",Ивановская область, Иваново, Фрунзенский, Зеленая ,39,56.9939806,40.9682539,6400000
3596.487318,34,17,11,,1,False,3,2016,14,2,,3,5,,True,True,False,,,,,,,False,42," Иваново,  Советский район, Свободы ул,21",Ивановская область, Иваново, Советский, Свободы ,21,57.0173165,41.0178461,1840000
3089.354643,30,19,7,,1,False,5,,5,,,,,,False,False,False,,,,,,,False,43," Иваново,  Советский район, Свободы ул,39,корп.Б",Ивановская область, Иваново, Советский, Свободы ,39,57.016011,41.008888,1400000
3622.47371,44,30,5,,2,False,1,,5,,,,,,False,False,False,,,,,,,False,44," Иваново,  Ленинский район, Чапаева пер,19",Ивановская область, Иваново, Ленинский, Чапаева пер,19,56.971725,41.0085849,1430000
3293.451988,42,28,6,,2,False,1,,4,,,,,,False,False,False,,,,,,,False,45," Иваново,  Советский район, Каравайковой ул",Ивановская область, Иваново, Советский, Каравайковой ул,,56.9966609,41.0257219,1580000
4647.248829,91,55,13,,3,False,2,,10,,,,,,False,False,False,,,,,,,False,46," Иваново,  Октябрьский район, Авдотьинская ул",Ивановская область, Иваново, Октябрьский, Авдотьинская ул,,57.0281435,40.9199001,5700000
2857.73596,33,11,10,,1,False,8,,14,,,,,,False,False,False,,,,,,,False,47," Иваново,  Фрунзенский район, Воронина ул,5а",Ивановская область, Иваново, Фрунзенский, Воронина ,5а,56.971523,40.9709699,1492000
2857.73596,33,11,10,,1,False,13,,14,,,,,,False,False,False,,,,,,,False,48," Иваново,  Фрунзенский район, Воронина ул,5а",Ивановская область, Иваново, Фрунзенский, Воронина ,5а,56.971523,40.9709699,1424000
2857.73596,73,38,14,,3,False,13,,14,,,,,,False,False,False,,,,,,,False,49," Иваново,  Фрунзенский район, Воронина ул,5а",Ивановская область, Иваново, Фрунзенский, Воронина ,5а,56.971523,40.9709699,2944000
2857.73596,78,41,12,,3,False,10,,14,,,,,,False,False,False,,,,,,,False,50," Иваново,  Фрунзенский район, Воронина ул,5а",Ивановская область, Иваново, Фрунзенский, Воронина ,5а,56.971523,40.9709699,3091000
2857.73596,33,11,10,,1,False,10,,14,,,,,,False,False,False,,,,,,,False,51," Иваново,  Фрунзенский район, Воронина ул,5а",Ивановская область, Иваново, Фрунзенский, Воронина ,5а,56.971523,40.9709699,1492000
2857.73596,48,20,16,,1,False,11,,14,,,,,,False,False,False,,,,,,,False,52," Иваново,  Фрунзенский район, Воронина ул,5а",Ивановская область, Иваново, Фрунзенский, Воронина ,5а,56.971523,40.9709699,2064000
2857.73596,78,41,12,,3,False,10,,14,,,,,,False,False,False,,,,,,,False,53," Иваново,  Фрунзенский район, Воронина ул,5а",Ивановская область, Иваново, Фрунзенский, Воронина ,5а,56.971523,40.9709699,3331000
2857.73596,48,20,16,,1,False,8,,14,,,,,,False,False,False,,,,,,,False,54," Иваново,  Фрунзенский район, Воронина ул,5а",Ивановская область, Иваново, Фрунзенский, Воронина ,5а,56.971523,40.9709699,2164000
405.8881673,133,73,25,,3,False,8,,8,,,,,,False,False,False,,,,,,,False,55," Иваново,  Фрунзенский район, Зеленая ул,39",Ивановская область, Иваново, Фрунзенский, Зеленая ,39,56.9939806,40.9682539,6400000
2857.73596,50,20,17,,1,False,10,,14,,,,,,False,False,False,,,,,,,False,56," Иваново,  Фрунзенский район, Воронина ул,5",Ивановская область, Иваново, Фрунзенский, Воронина ,5,56.971523,40.9709699,2165000
2857.73596,48,20,17,,1,False,14,,14,,,,,,False,False,False,,,,,,,False,57," Иваново,  Фрунзенский район, Воронина ул,5",Ивановская область, Иваново, Фрунзенский, Воронина ,5,56.971523,40.9709699,2094000
5186.261669,51,22,11,,1,False,3,,18,,,,,,False,False,False,,,,,,,False,58," Иваново,  Ленинский район, Профессиональная ул,4",Ивановская область, Иваново, Ленинский, Профессиональная ,4,56.9508483,40.9802314,2200000
2857.73596,50,20,17,,1,False,10,,14,,,,,,False,False,False,,,,,,,False,59," Иваново,  Фрунзенский район, Воронина ул,5",Ивановская область, Иваново, Фрунзенский, Воронина ,5,56.971523,40.9709699,2165000
1323.855552,86,50,14,,2,False,2,2012,9,2,,3,5,,False,True,False,,,,,,,False,60," Иваново,  Фрунзенский район, Богдана Хмельницкого ул,44",Ивановская область, Иваново, Фрунзенский, Богдана Хмельницкого ,44,56.9861241,40.9634352,4500000
4124.171057,27,14,5,,1,False,1,,5,,,,,,False,False,False,,,,,,,False,61," Иваново,  Ленинский район, Строителей пр-кт,114",Ивановская область, Иваново, Ленинский, Строителей пр-кт,114,56.9674197,41.0118744,1260000
422.3267679,52,22,13,,1,False,1,,8,,,,,,False,False,False,,,,,,,False,62," Иваново,  Фрунзенский район, Зеленая ул,39,корп.2",Ивановская область, Иваново, Фрунзенский, Зеленая ,39,56.9939622,40.9677665,2100000
422.3267679,125,85,13,,3,False,8,,8,,,,,,False,False,False,,,,,,,False,63," Иваново,  Фрунзенский район, Зеленая ул,39,корп.2",Ивановская область, Иваново, Фрунзенский, Зеленая ,39,56.9939622,40.9677665,6400000
5164.777627,48,,,,1,False,1,,17,,,,,,False,False,False,,,,,,,False,64," Иваново,  Октябрьский район, Дюковская ул,27,корп.б",Ивановская область, Иваново, Октябрьский, Дюковская ,27,57.0353706,40.9229154,1750000
5164.777627,83,,,,3,False,11,,17,,,,,,False,False,False,,,,,,,False,65," Иваново,  Октябрьский район, Дюковская ул,27",Ивановская область, Иваново, Октябрьский, Дюковская ,27,57.0353706,40.9229154,2950000
1354.229982,51,22,11,,1,False,3,,18,,,,,,False,False,False,,,,,,,False,66," Иваново,  Ленинский район, Профсоюзная ул,4 /Серебряный Город",Ивановская область, Иваново, Ленинский, Профсоюзная ,4/СеребряныйГород,57.0031029,40.9909373,2200000
2857.73596,50,20,16,,1,False,10,,14,,,,,,False,False,False,,,,,,,False,67," Иваново,  Фрунзенский район, Воронина ул,5",Ивановская область, Иваново, Фрунзенский, Воронина ,5,56.971523,40.9709699,2165000
2857.73596,50,20,16,,1,False,14,,14,,,,,,False,False,False,,,,,,,False,68," Иваново,  Фрунзенский район, Воронина ул,5",Ивановская область, Иваново, Фрунзенский, Воронина ,5,56.971523,40.9709699,2064000
3667.133936,64,47,6,,3,False,2,1977,5,2,,3,4,,False,True,False,,,,,,,False,69," Иваново,  Октябрьский район, Степана Халтурина ул,6",Ивановская область, Иваново, Октябрьский, Степана Халтурина ,6,57.0291191,40.9864266,2750000
3792.192741,46,28,6,,2,False,5,1967,5,1,,3,5,,False,True,False,,,,,,,False,70," Иваново,  Советский район, Чайковского 2-я ул,4",Ивановская область, Иваново, Советский, Чайковского 2-я ,4,57.015961,41.023636,1400000
4011.365099,45,32,6,,2,False,5,,5,,,,,,False,False,False,,,,,,,False,71," Иваново,  Ленинский район, Строителей пр-кт,20",Ивановская область, Иваново, Ленинский, Строителей пр-кт,20,56.9624,40.988627,1700000
1905.535679,52,37,6,,3,False,5,,5,,,,,,False,False,False,,,,,,,False,72," Иваново,  Октябрьский район, Фридриха Энгельса пр-кт,117",Ивановская область, Иваново, Октябрьский, Фридриха Энгельса пр-кт,117,57.0123382,40.9860907,2550000
2221.509648,96,77,10,,3,False,5,,5,,,,,,False,False,False,,,,,,,False,73," Иваново,  Октябрьский район, Ленина пр-кт,102 /площадь Ленина, ТЦ Купеческий",Ивановская область, Иваново, Октябрьский, Ленина пр-кт,102/площадьЛенина,57.0171442,40.9698837,2200000
1969.133407,96,77,10,,5,False,5,,5,,,,,,False,False,False,,,,,,,False,74," Иваново,  Октябрьский район, Ленина пр-кт,102",Ивановская область, Иваново, Октябрьский, Ленина пр-кт,102,57.0148892,40.9706781,2200000
3460.606557,107,63,14,,3,False,10,,11,,,,,,False,False,False,,,,,,,False,75," Иваново,  Ленинский район, Московский мкр,2",Ивановская область, Иваново, Ленинский, Московский мкр,2,56.9685978,40.9937885,5200000
1870.069507,43,27,6,,2,False,1,1961,3,1,,1,5,,False,True,False,,,,,,,False,76," Иваново,  Фрунзенский район, Благова ул,27",Ивановская область, Иваново, Фрунзенский, Благова ,27,56.981156,40.9622323,1490000
5001.082329,42,16,12,,1,False,8,,9,,,,,,False,False,False,,,,,,,False,77," Иваново,  Октябрьский район, Революционная ул,20Б",Ивановская область, Иваново, Октябрьский, Революционная ,20Б,57.032801,40.9210328,2100000
1041.707559,41,27,6,,2,False,1,1967,5,1,,3,5,,False,True,False,,,,,,,False,78," Иваново,  Фрунзенский район, Кузнецова ул,55",Ивановская область, Иваново, Фрунзенский, Кузнецова ,55,57.002934,40.9578161,1550000
3626.208416,26,17,5,,1,False,2,,4,,,,,,False,False,False,,,,,,,False,79," Иваново,  Ленинский район, ",Ивановская область, Иваново, Ленинский, ,,56.9726955,41.0108145,960000
1794.642307,40,27,6,,2,False,5,,5,,,,,,False,False,False,,,,,,,False,80," Иваново,  Фрунзенский район, Герцена ул,17 /ИГЭУ, РИАТ, школа 39",Ивановская область, Иваново, Фрунзенский, Герцена ,17/ИГЭУ,57.001276,40.942754,1420000
2342.63403,60,42,6,,3,False,4,1980,12,2,,3,4,,False,True,False,,,,,,,False,81," Иваново,  Ленинский район, Лежневская ул,115",Ивановская область, Иваново, Ленинский, Лежневская ,115,56.976353,40.976748,2200000
6516.690045,65,40,10,,3,False,4,,9,,,,,,False,False,False,,,,,,,False,82," Иваново,  Ленинский район, ДСК мкр,5",Ивановская область, Иваново, Ленинский, ДСК мкр,5,56.954598,41.0451117,2100000
4163.543373,32,21,7,,1,False,1,1977,9,2,,3,5,,False,True,False,,,,,,,False,129," Иваново,  Ленинский район, Шубиных ул,1",Ивановская область, Иваново, Ленинский, Шубиных ,1,56.964283,41.0040261,1400000
1204.573849,58,38,6,,3,False,5,1973,5,2,,3,5,,False,True,False,,,,,,,False,83," Иваново,  Ленинский район, Поэта Ноздрина ул,11",Ивановская область, Иваново, Ленинский, Поэта Ноздрина ,11,57.000449,40.990356,2450000
1860.578578,41,28,7,,2,False,1,1962,5,1,,1,5,,False,True,False,,,,,,,False,84," Иваново,  Октябрьский район, 9 Января ул,11",Ивановская область, Иваново, Октябрьский, 9 Января ,11,57.013737,40.9759072,1800000
2551.102824,40,27,6,,2,False,5,,5,,,,,,False,False,False,,,,,,,False,85," Иваново,  Фрунзенский район, Парижской Коммуны ул",Ивановская область, Иваново, Фрунзенский, Парижской Коммуны ул,,56.9996062,40.9295462,1420000
2978.418196,76,32,22,,3,False,14,1997,14,2,,3,5,,False,True,False,,,,,,,False,86," Иваново,  Советский район, Новая ул,15",Ивановская область, Иваново, Советский, Новая ,15,56.9886814,41.0179734,2180000
4787.853316,59,42,6,,3,False,4,,5,,,,,,False,False,False,,,,,,,False,87," Иваново,  Ленинский район, Текстильщиков пр-кт,9а",Ивановская область, Иваново, Ленинский, Текстильщиков пр-кт,9а,56.960454,41.0124549,2550000
4817.732183,49,35,6,,2,False,1,,5,,,,,,False,False,False,,,,,,,False,88," Иваново,  Октябрьский район, Ключевая 2-я ул",Ивановская область, Иваново, Октябрьский, Ключевая 2-я ул,,57.0329639,40.9265978,2300000
2891.385108,44,28,6,,2,False,5,1961,5,1,,3,5,,False,True,False,,,,,,,False,89," Иваново,  Ленинский район, Лежневская ул,132",Ивановская область, Иваново, Ленинский, Лежневская ,132,56.971236,40.9730951,1700000
1939.489155,99,52,29,,4,False,5,1954,5,1,,3,5,,False,True,False,,,,,,,False,90," Иваново,  Октябрьский район, Калинина ул,10",Ивановская область, Иваново, Октябрьский, Калинина ,10,57.014601,40.9731542,4500000
4817.732183,49,35,6,,2,False,1,,5,,,,,,False,False,False,,,,,,,False,91," Иваново,  Октябрьский район, Ключевая 2-я ул",Ивановская область, Иваново, Октябрьский, Ключевая 2-я ул,,57.0329639,40.9265978,2300000
2113.616884,41,20,11,,1,False,11,,17,,,,,,False,False,False,,,,,,,False,92," Иваново,  Октябрьский район, Карла Маркса ул,4,корп.а",Ивановская область, Иваново, Октябрьский, Карла Маркса ,4,57.0161915,40.9716018,2300000
2815.577747,26,13,6,,1,False,2,1917,3,1,,1,5,,False,True,False,,,,,,,False,93," Иваново,  Октябрьский район, Ермака ул,47",Ивановская область, Иваново, Октябрьский, Ермака ,47,57.020274,40.952346,1060000
1438.256293,32,17,6,,1,False,5,1965,5,1,,3,5,,False,True,False,,,,,,,False,94," Иваново,  Октябрьский район, Дунаева ул,42",Ивановская область, Иваново, Октябрьский, Дунаева ,42,57.007352,40.9860839,1540000
1875.805651,34,26,5,,2,False,3,1930,5,1,,1,1,,False,True,False,,,,,,,False,95," Иваново,  Октябрьский район, Октябрьская ул,3/70",Ивановская область, Иваново, Октябрьский, Октябрьская ,Mar-70,57.0135197,40.9791383,1240000
3119.087805,37,16,10,,1,False,3,2015,14,2,,3,5,,True,True,False,,,,,,,False,96," Иваново,  Ленинский район, Чапаева 2-я ул,40А",Ивановская область, Иваново, Ленинский, Чапаева 2-я ,40А,56.9748045,41.0023263,1750000
4315.673061,45,29,6,,2,False,1,1978,5,2,,3,5,,False,True,False,,,,,,,False,97," Иваново,  Октябрьский район, Минская 2-я ул,5",Ивановская область, Иваново, Октябрьский, Минская 2-я ,5,57.033578,40.946729,1550000
1502.8572,73,43,9,,3,False,8,2016,9,2,,3,6,,True,True,False,,,,,,,False,98," Иваново,  Ленинский район, Садовая ул,63",Ивановская область, Иваново, Ленинский, Садовая ,63,56.996172,40.99612,4470000
1534.111126,43,16,9,,1,False,3,,9,,,,,,False,False,False,,,,,,,False,99," Иваново,  Ленинский район, Сакко ул,37а",Ивановская область, Иваново, Ленинский, Сакко ,37а,56.998694,40.9965593,1950000
4102.881906,39,24,6,,2,False,4,,5,,,,,,False,False,False,,,,,,,False,100," Иваново,  Ленинский район, Строителей пр-кт,34",Ивановская область, Иваново, Ленинский, Строителей пр-кт,34,56.961955,40.9912419,2200000
5154.093454,51,34,6,,2,False,3,1973,5,2,,3,4,,False,True,False,,,,,,,False,101," Иваново,  Ленинский район, Шубиных ул,31Б",Ивановская область, Иваново, Ленинский, Шубиных ,31Б,56.9571709,41.0141376,1790000
2857.73596,79,41,12,,3,False,8,,15,,,,,,False,False,False,,,,,,,False,102," Иваново,  Фрунзенский район, Воронина ул,5А",Ивановская область, Иваново, Фрунзенский, Воронина ,5А,56.971523,40.9709699,3331000
2677.653058,44,17,11,,1,False,9,,17,,,,,,False,False,False,,,,,,,False,103," Иваново,  Ленинский район, Полевая 2-я пл",Ивановская область, Иваново, Ленинский, Полевая 2-я пл,,56.9737395,40.9811957,1570000
2677.653058,44,16,10,,1,False,9,,17,,,,,,False,False,False,,,,,,,False,104," Иваново,  Ленинский район, Полевая 2-я пл",Ивановская область, Иваново, Ленинский, Полевая 2-я пл,,56.9737395,40.9811957,1580000
2571.60001,68,39,26,,2,False,9,,15,,,,,,False,False,False,,,,,,,False,105," Иваново,  Фрунзенский район, Тейковский пер",Ивановская область, Иваново, Фрунзенский, Тейковский пер,,56.9908674,40.9306046,2550000
2483.162809,54,33,9,,2,False,6,1991,9,2,,3,4,,True,True,False,,,,,,,False,106," Иваново,  Фрунзенский район, Кузнецова ул,124",Ивановская область, Иваново, Фрунзенский, Кузнецова ,124,57.0113834,40.9397714,1850000
2677.653058,68,36,12,,2,False,16,,17,,,,,,False,False,False,,,,,,,False,107," Иваново,  Ленинский район, Полевая 2-я ул",Ивановская область, Иваново, Ленинский, Полевая 2-я ул,,56.9737395,40.9811957,2536000
2677.653058,64,27,12,,2,False,10,,17,,,,,,False,False,False,,,,,,,False,108," Иваново,  Ленинский район, Полевая 2-я ул",Ивановская область, Иваново, Ленинский, Полевая 2-я ул,,56.9737395,40.9811957,2372000
2677.653058,44,15,10,,1,False,9,,17,,,,,,False,False,False,,,,,,,False,109," Иваново,  Ленинский район, Полевая 2-я ул",Ивановская область, Иваново, Ленинский, Полевая 2-я ул,,56.9737395,40.9811957,1663000
2677.653058,68,29,13,,2,False,9,,17,,,,,,False,False,False,,,,,,,False,110," Иваново,  Ленинский район, Полевая 2-я ул",Ивановская область, Иваново, Ленинский, Полевая 2-я ул,,56.9737395,40.9811957,2518000
2677.653058,67,29,12,,2,False,14,,17,,,,,,False,False,False,,,,,,,False,111," Иваново,  Ленинский район, Полевая 2-я ул",Ивановская область, Иваново, Ленинский, Полевая 2-я ул,,56.9737395,40.9811957,2503000
2677.653058,76,42,12,,3,False,13,,17,,,,,,False,False,False,,,,,,,False,112," Иваново,  Ленинский район, Полевая 2-я ул",Ивановская область, Иваново, Ленинский, Полевая 2-я ул,,56.9737395,40.9811957,2836000
4937.658637,46,22,10,,1,False,2,2015,19,2,,3,5,,True,True,False,,,,,,,False,113," Иваново,  Октябрьский район, Авдотьинская ул,30",Ивановская область, Иваново, Октябрьский, Авдотьинская ,30,57.0292936,40.9151335,1840000
6383.554228,90,54,9,,4,False,9,,10,,,,,,False,False,False,,,,,,,False,114," Иваново,  Ленинский район, ДСК мкр,3",Ивановская область, Иваново, Ленинский, ДСК мкр,3,56.9550558,41.0427949,3070000
1354.229982,112,65,27,,3,False,3,,18,,,,,,False,False,False,,,,,,,False,115," Иваново,  Ленинский район, Профсоюзная ул,4",Ивановская область, Иваново, Ленинский, Профсоюзная ,4,57.0031029,40.9909373,4260000
1060.101678,46,31,6,,2,False,5,1960,5,1,,3,5,,False,True,False,,,,,,,False,116," Иваново,  Фрунзенский район, Кузнецова ул,48",Ивановская область, Иваново, Фрунзенский, Кузнецова ,48,57.0033914,40.9581087,1750000
1354.229982,51,22,11,,1,False,3,,18,,,,,,False,False,False,,,,,,,False,117," Иваново,  Ленинский район, Профсоюзная ул,4",Ивановская область, Иваново, Ленинский, Профсоюзная ,4,57.0031029,40.9909373,2200000
1323.855552,86,50,14,,2,False,2,2012,9,2,,3,5,,False,True,False,,,,,,,False,118," Иваново,  Фрунзенский район, Богдана Хмельницкого ул,44",Ивановская область, Иваново, Фрунзенский, Богдана Хмельницкого ,44,56.9861241,40.9634352,4500000
2857.73596,39,27,1,,1,False,14,,14,,,,,,False,False,False,,,,,,,False,119," Иваново,  Фрунзенский район, Воронина ул,5а",Ивановская область, Иваново, Фрунзенский, Воронина ,5а,56.971523,40.9709699,2050000
1354.229982,112,65,27,,3,False,3,,18,,,,,,False,False,False,,,,,,,False,120," Иваново,  Ленинский район, Профсоюзная ул,4а",Ивановская область, Иваново, Ленинский, Профсоюзная ,4а,57.0031029,40.9909373,4260000
1354.229982,51,22,11,,1,False,3,,18,,,,,,False,False,False,,,,,,,False,121," Иваново,  Ленинский район, Профсоюзная ул,4а",Ивановская область, Иваново, Ленинский, Профсоюзная ,4а,57.0031029,40.9909373,2200000
2857.73596,39,33,,,1,False,14,,14,,,,,,False,False,False,,,,,,,False,122," Иваново,  Фрунзенский район, Воронина ул,5а",Ивановская область, Иваново, Фрунзенский, Воронина ,5а,56.971523,40.9709699,2050000
5052.917435,48,21,8,,1,False,15,,17,,,,,,False,False,False,,,,,,,False,123," Иваново,  Октябрьский район, Дюковская ул",Ивановская область, Иваново, Октябрьский, Дюковская ул,,57.0349765,40.925136,1823000
5052.917435,48,21,8,,1,False,17,,17,,,,,,False,False,False,,,,,,,False,124," Иваново,  Октябрьский район, Дюковская ул",Ивановская область, Иваново, Октябрьский, Дюковская ул,,57.0349765,40.925136,1823000
5052.917435,49,19,14,,1,False,15,,17,,,,,,False,False,False,,,,,,,False,125," Иваново,  Октябрьский район, Дюковская ул",Ивановская область, Иваново, Октябрьский, Дюковская ул,,57.0349765,40.925136,1841000
5052.917435,49,19,14,,1,False,17,,17,,,,,,False,False,False,,,,,,,False,126," Иваново,  Октябрьский район, Дюковская ул",Ивановская область, Иваново, Октябрьский, Дюковская ул,,57.0349765,40.925136,1841000
4434.680985,42,28,6,,2,False,5,1967,5,2,,3,4,,False,True,False,,,,,,,False,127," Иваново,  Ленинский район, Маршала Василевского ул,9",Ивановская область, Иваново, Ленинский, Маршала Василевского ,9,56.959672,40.995984,1650000
4434.680985,42,30,6,,2,False,5,1967,5,2,,3,4,,False,True,False,,,,,,,False,128," Иваново,  Ленинский район, Маршала Василевского ул,9",Ивановская область, Иваново, Ленинский, Маршала Василевского ,9,56.959672,40.995984,1650000
5034.985582,76,39,14,,2,False,10,,14,,,,,,False,False,False,,,,,,,False,130," Иваново,  Октябрьский район, Дюковская ул,25",Ивановская область, Иваново, Октябрьский, Дюковская ,25,57.0344665,40.9242812,2849000
2857.73596,40,16,11,,1,False,14,,14,,,,,,False,False,False,,,,,,,False,131," Иваново,  Фрунзенский район, Воронина ул,5А",Ивановская область, Иваново, Фрунзенский, Воронина ,5А,56.971523,40.9709699,2050000
1354.229982,51,22,11,,1,False,3,,18,,,,,,False,False,False,,,,,,,False,132," Иваново,  Ленинский район, Профсоюзная ул,4а",Ивановская область, Иваново, Ленинский, Профсоюзная ,4а,57.0031029,40.9909373,2200000
2571.60001,68,39,26,,2,False,11,,15,,,,,,False,False,False,,,,,,,False,133," Иваново,  Фрунзенский район, Тейковский пер",Ивановская область, Иваново, Фрунзенский, Тейковский пер,,56.9908674,40.9306046,2550000
1919.374584,33,18,7,,1,False,2,1974,5,2,,3,5,,False,True,False,,,,,,,False,134," Иваново,  Фрунзенский район, Летчика Захарова ул,27",Ивановская область, Иваново, Фрунзенский, Летчика Захарова ,27,56.9799942,40.9692275,1750000
1750.964246,12,8,4,,1,False,3,,5,,,,,,False,False,False,,,,,,,False,135," Иваново,  Фрунзенский район, Ташкентская ул,65,корп.а",Ивановская область, Иваново, Фрунзенский, Ташкентская ,65,56.9815689,40.968115,1200000
3816.105406,33,18,8,,1,False,1,1981,5,2,,3,5,,False,True,False,,,,,,,False,136," Иваново,  Советский район, Чайковского 3-я ул,4",Ивановская область, Иваново, Советский, Чайковского 3-я ,4,57.014656,41.025598,1250000
4909.885542,37,18,9,,1,False,1,1995,10,2,,3,7,,False,True,False,,,,,,,False,137," Иваново,  Октябрьский район, Дюковская ул,21",Ивановская область, Иваново, Октябрьский, Дюковская ,21,57.0326919,40.9232668,1600000
9110.839961,29,16,6,,1,False,2,,5,,,,,,False,False,False,,,,,,,False,138," Иваново,  Советский район, ТЭЦ-3 мкр,26",Ивановская область, Иваново, Советский, ТЭЦ-3 мкр,26,56.9540024,41.0989979,1250000
3353.532135,40,30,5,,2,False,1,1959,2,1,,1,6,,False,True,False,,,,,,,False,139," Иваново,  Советский район, Победы ул,49",Ивановская область, Иваново, Советский, Победы ,49,57.019335,41.0089489,800000
2816.409372,44,30,6,,2,False,4,,5,,,,,,False,False,False,,,,,,,False,140," Иваново,  Октябрьский район, Ленина пр-кт,138",Ивановская область, Иваново, Октябрьский, Ленина пр-кт,138,57.02244,40.968027,2350000
2377.374249,52,32,8,,2,False,5,1984,5,2,,3,5,,False,True,False,,,,,,,False,141," Иваново,  Октябрьский район, Сибирская 1-я ул,15",Ивановская область, Иваново, Октябрьский, Сибирская 1-я ,15,57.018539,40.973212,2350000
5539.571769,46,33,5,,2,False,4,1973,5,1,,3,5,,False,True,False,,,,,,,False,142," Иваново,  Октябрьский район, Петрозаводская 2-я ул,1а",Ивановская область, Иваново, Октябрьский, Петрозаводская 2-я ,1а,57.0453204,40.9480145,1500000
1703.184749,112,60,18,,3,False,11,2013,14,,,3,5,,False,True,False,,,,,,,False,143," Иваново,  Ленинский район, Колотилова ул,38",Ивановская область, Иваново, Ленинский, Колотилова ,38,56.99564,40.9993501,16000000
5145.135649,41,27,6,,2,False,5,1982,5,2,,3,4,,False,True,False,,,,,,,False,144," Иваново,  Советский район, Санаторная 7-я ул,29",Ивановская область, Иваново, Советский, Санаторная 7-я ,29,56.974108,41.0449089,1550000
4064.30269,33,19,6,,1,False,3,,5,,,,,,False,False,False,,,,,,,False,145," Иваново,  Ленинский район, Строителей пр-кт,116",Ивановская область, Иваново, Ленинский, Строителей пр-кт,116,56.9679671,41.0115708,1700000
1752.65005,46,30,6,,2,False,2,1959,2,1,,1,5,,False,True,False,,,,,,,False,146," Иваново,  Советский район, Окружная 2-я ул,17",Ивановская область, Иваново, Советский, Окружная 2-я ,17,57.006529,40.994697,1000000
1748.430701,31,18,6,,1,False,3,,4,,,,,,False,False,False,,,,,,,False,147," Иваново,  Фрунзенский район, Ташкентская ул,62",Ивановская область, Иваново, Фрунзенский, Ташкентская ,62,56.98171,40.966586,1290000
833.1985459,59,37,8,,3,False,9,1980,10,2,,3,5,,True,True,False,,,,,,,False,148," Иваново,  Фрунзенский район, Богдана Хмельницкого ул,30",Ивановская область, Иваново, Фрунзенский, Богдана Хмельницкого ,30,56.989812,40.969176,2950000
5231.92665,73,49,7,,3,False,1,1953,2,1,,1,5,,False,True,False,,,,,,,False,149," Иваново,  Советский район, Маршала Жаворонкова ул,23",Ивановская область, Иваново, Советский, Маршала Жаворонкова ,23,56.9738698,41.0463081,1500000
3186.221263,43,32,6,,2,False,1,1964,5,1,,3,5,,True,False,False,,,,,,,False,150," Иваново,  Фрунзенский район, Ташкентская ул,95",Ивановская область, Иваново, Фрунзенский, Ташкентская ,95,56.968771,40.9651901,1500000
2424.624944,45,30,6,,2,False,1,,5,,,,,,False,False,False,,,,,,,False,151," Иваново,  Фрунзенский район, Бакинский проезд,84",Ивановская область, Иваново, Фрунзенский, Бакинский проезд,84,56.990151,40.9335566,1600000
1880.335895,42,24,6,,2,False,5,1962,5,1,,3,5,,False,True,False,,,,,,,False,152," Иваново,  Фрунзенский район, Кузнецова ул,98А",Ивановская область, Иваново, Фрунзенский, Кузнецова ,98А,57.008146,40.9477671,1750000
2304.110054,44,32,6,,2,False,5,,5,,,,,,False,False,False,,,,,,,False,153," Иваново,  Октябрьский район, Пограничный пер,80",Ивановская область, Иваново, Октябрьский, Пограничный пер,80,57.0178411,40.9743494,1600000
3626.208416,42,21,9,,1,False,14,,17,,,,,,False,False,False,,,,,,,False,154," Иваново,  Ленинский район, ",Ивановская область, Иваново, Ленинский, ,,56.9726955,41.0108145,1500000
6816.647686,37,20,10,,1,False,1,,5,,,,,,False,False,False,,,,,,,False,155," Иваново,  Ленинский район, Кохомское ш,8",Ивановская область, Иваново, Ленинский, Кохомское ш,8,56.9524984,41.0482317,1460000
2187.19091,39,25,5,,2,False,5,1971,5,2,,3,5,,False,True,False,,,,,,,False,156," Иваново,  Фрунзенский район, Лебедева-Кумача ул,2",Ивановская область, Иваново, Фрунзенский, Лебедева-Кумача ,2,57.002191,40.936499,1700000
2647.740237,34,23,6,,2,False,1,1959,2,1,,1,5,,False,True,False,,,,,,,False,157," Иваново,  Фрунзенский район, Героя Советского Союза Сахарова ул,9",Ивановская область, Иваново, Фрунзенский, Героя Советского Союза Сахарова ,9,57.012905,40.938583,1240000
3607.21124,28,19,5,,1,False,3,1975,5,2,,3,5,,False,True,False,,,,,,,False,158," Иваново,  Ленинский район, Чапаева 2-я ул,65",Ивановская область, Иваново, Ленинский, Чапаева 2-я ,65,56.970941,41.0062721,1250000
4475.458125,43,29,6,,2,False,4,1971,5,1,,3,5,,False,True,False,,,,,,,False,159," Иваново,  Ленинский район, Шубиных ул,17",Ивановская область, Иваново, Ленинский, Шубиных ,17,56.9628314,41.0097165,1870000
4327.912501,40,28,6,,2,False,5,,5,,,,,,False,False,False,,,,,,,False,160," Иваново,  Ленинский район, Строителей пр-кт,56",Ивановская область, Иваново, Ленинский, Строителей пр-кт,56,56.961218,40.998469,1800000
606.4174912,50,32,8,,2,False,5,,6,,,,,,False,False,False,,,,,,,False,161," Иваново,  Фрунзенский район, Мархлевского ул,31А",Ивановская область, Иваново, Фрунзенский, Мархлевского ,31А,56.9989106,40.9619016,2250000
7164.418118,53,35,10,,2,False,3,,9,,,,,,False,False,False,,,,,,,False,162," Иваново,  Ленинский район, Кохомское ш,17",Ивановская область, Иваново, Ленинский, Кохомское ш,17,56.9526113,41.056598,2700000
3626.208416,60,31,14,,2,False,10,,17,,,,,,False,False,False,,,,,,,False,163," Иваново,  Ленинский район, ",Ивановская область, Иваново, Ленинский, ,,56.9726955,41.0108145,2300000
5834.017764,67,44,6,,4,False,1,1984,5,2,,3,4,,False,True,False,,,,,,,False,164," Иваново,  Октябрьский район, Водопроводная 1-я ул,80",Ивановская область, Иваново, Октябрьский, Водопроводная 1-я ,80,57.037357,40.909503,2100000
2069.619779,41,28,6,,2,False,4,,5,,,,,,False,False,False,,,,,,,False,165," Иваново,  Фрунзенский район, Красных Зорь ул",Ивановская область, Иваново, Фрунзенский, Красных Зорь ул,,57.0031743,40.9390652,1680000
3186.221263,52,20,24,,3,False,5,1964,5,1,,3,5,,True,False,False,,,,,,,False,166," Иваново,  Фрунзенский район, Ташкентская ул,95",Ивановская область, Иваново, Фрунзенский, Ташкентская ,95,56.968771,40.9651901,2200000
2519.743939,30,17,6,,1,False,5,1964,5,1,,3,5,,False,True,False,,,,,,,False,167," Иваново,  Октябрьский район, Войкова ул,20",Ивановская область, Иваново, Октябрьский, Войкова ,20,57.019481,40.9640141,1350000
1115.943503,49,30,8,,2,False,2,1941,3,1,,1,5,,False,True,False,,,,,,,False,168," Иваново,  Фрунзенский район, Красных Зорь ул,9",Ивановская область, Иваново, Фрунзенский, Красных Зорь ,9,57.0010787,40.9544227,1900000
2474.344662,72,52,10,,3,False,1,,5,,,,,,False,False,False,,,,,,,False,169," Иваново,  Ленинский район, Полевая 1-я пл",Ивановская область, Иваново, Ленинский, Полевая 1-я пл,,56.9752859,40.978288,3300000
5607.450884,43,29,6,,2,False,1,1970,5,2,,3,4,,False,True,False,,,,,,,False,170," Иваново,  Советский район, Лагерная 2-я ул,57",Ивановская область, Иваново, Советский, Лагерная 2-я ,57,56.9737707,41.0532697,1600000
5527.37045,126,80,12,,3,False,5,,6,,,,,,False,False,False,,,,,,,False,171," Иваново,  Октябрьский район, Минская ул",Ивановская область, Иваново, Октябрьский, Минская ул,,57.0446483,40.9444397,3500000
2865.54992,38,19,9,,1,False,1,,5,,,,,,False,False,False,,,,,,,False,172," Иваново,  Фрунзенский район, Силикатный пер,44",Ивановская область, Иваново, Фрунзенский, Силикатный пер,44,56.978993,40.937982,1500000
6978.488309,48,28,9,,2,False,1,,9,,,,,,False,False,False,,,,,,,False,173," Иваново,  Ленинский район, Кохомское ш,11",Ивановская область, Иваново, Ленинский, Кохомское ш,11,56.9518486,41.0508535,1950000
3851.335708,47,31,6,,2,False,2,1963,5,2,,3,4,,False,True,False,,,,,,,False,174," Иваново,  Ленинский район, Демьяна Бедного ул,117",Ивановская область, Иваново, Ленинский, Демьяна Бедного ,117,56.9682813,41.0062831,1800000
3960.165833,32,17,6,,1,False,2,1963,4,1,,3,5,,False,True,False,,,,,,,False,175," Иваново,  Октябрьский район, Фрунзе ул,21",Ивановская область, Иваново, Октябрьский, Фрунзе ,21,57.0327655,40.9692979,1290000
4949.727019,60,43,6,,4,False,3,1975,5,,,,4,,True,False,False,,,,,,,False,176," Иваново,  Ленинский район, Шубиных ул,26 А",Ивановская область, Иваново, Ленинский, Шубиных ,26А,56.9581484,41.0104574,2400000
2232.982034,34,21,13,,1,False,1,,10,,,,,,False,False,False,,,,,,,False,177," Иваново,  Ленинский район, Голубева ул,2",Ивановская область, Иваново, Ленинский, Голубева ,2,56.981177,40.993567,1566000
2857.73596,33,12,10,,1,False,8,,15,,,,,,False,False,False,,,,,,,False,178," Иваново,  Фрунзенский район, Воронина ул,5А",Ивановская область, Иваново, Фрунзенский, Воронина ,5А,56.971523,40.9709699,1424000
2857.73596,50,20,16,,1,False,10,,15,,,,,,False,False,False,,,,,,,False,179," Иваново,  Фрунзенский район, Воронина ул,5А",Ивановская область, Иваново, Фрунзенский, Воронина ,5А,56.971523,40.9709699,2165000
2857.73596,73,38,14,,3,False,10,,15,,,,,,False,False,False,,,,,,,False,180," Иваново,  Фрунзенский район, Воронина ул,5А",Ивановская область, Иваново, Фрунзенский, Воронина ,5А,56.971523,40.9709699,3091000
2857.73596,55,26,11,,2,False,7,,15,,,,,,False,False,False,,,,,,,False,181," Иваново,  Фрунзенский район, Воронина ул,5А",Ивановская область, Иваново, Фрунзенский, Воронина ,5А,56.971523,40.9709699,2288000
2857.73596,36,12,11,,1,False,4,,15,,,,,,False,False,False,,,,,,,False,182," Иваново,  Фрунзенский район, Воронина ул,5А",Ивановская область, Иваново, Фрунзенский, Воронина ,5А,56.971523,40.9709699,1506000
2232.982034,32,13,8,,1,False,5,,10,,,,,,False,False,False,,,,,,,False,183," Иваново,  Ленинский район, Голубева ул,2",Ивановская область, Иваново, Ленинский, Голубева ,2,56.981177,40.993567,1503000
2232.982034,38,13,8,,1,False,2,,10,,,,,,False,False,False,,,,,,,False,184," Иваново,  Ленинский район, Голубева ул,2",Ивановская область, Иваново, Ленинский, Голубева ,2,56.981177,40.993567,1746000
2857.73596,29,22,1,,1,False,6,,14,,,,,,False,False,False,,,,,,,False,185," Иваново,  Фрунзенский район, Воронина ул,5А",Ивановская область, Иваново, Фрунзенский, Воронина ,5А,56.971523,40.9709699,1243000
4864.508047,136,85,20,,4,False,1,,2,,,,,,False,False,False,,,,,,,False,186," Иваново,  Ленинский район, Коляновская 5-я ул",Ивановская область, Иваново, Ленинский, Коляновская 5-я ул,,56.9546074,40.9894175,7000000
2870.522049,68,30,20,,2,False,10,,14,,,,,,False,False,False,,,,,,,False,187," Иваново,  Фрунзенский район, Воронина ул,5а /7 гор больница",Ивановская область, Иваново, Фрунзенский, Воронина ,5а/7горбольница,56.9715664,40.966146,3100000
2483.162809,54,33,9,,2,False,6,1991,9,2,,3,4,,True,True,False,,,,,,,False,188," Иваново,  Фрунзенский район, Кузнецова ул,124",Ивановская область, Иваново, Фрунзенский, Кузнецова ,124,57.0113834,40.9397714,1900000
2857.73596,40,20,9,,1,False,14,,14,,,,,,False,False,False,,,,,,,False,189," Иваново,  Фрунзенский район, Воронина ул,5а",Ивановская область, Иваново, Фрунзенский, Воронина ,5а,56.971523,40.9709699,2050000
7044.523073,50,28,10,,2,False,1,,9,,,,,,False,False,False,,,,,,,False,190," Иваново,  Ленинский район, Кохомское ш,18",Ивановская область, Иваново, Ленинский, Кохомское ш,18,56.9537594,41.0558755,2600000
2194.307613,52,37,6,,3,False,2,1967,5,2,,3,5,,False,True,False,,,,,,,False,191," Иваново,  Ленинский район, Колесанова ул,7",Ивановская область, Иваново, Ленинский, Колесанова ,7,56.9836937,40.9977673,1950000
3918.156621,41,28,6,,2,False,4,,5,,,,,,False,False,False,,,,,,,False,192," Иваново,  Ленинский район, 30-й мкр,2",Ивановская область, Иваново, Ленинский, 30-й мкр,2,56.9665028,41.0030363,1650000
3509.896395,41,27,6,,2,False,3,,5,,,,,,False,False,False,,,,,,,False,193," Иваново,  Октябрьский район, Боевиков ул,1 /дворец Текстильщиков",Ивановская область, Иваново, Октябрьский, Боевиков ,1/дворецТекстильщиков,57.027862,40.9578421,1800000
1917.491284,76,54,9,,4,False,3,1985,5,2,,3,5,,False,True,False,,,,,,,False,194," Иваново,  Ленинский район, Лежневская ул,118",Ивановская область, Иваново, Ленинский, Лежневская ,118,56.980172,40.976223,3100000
509.7500536,69,30,20,,3,False,9,,14,,,,,,False,False,False,,,,,,,False,195," Иваново,  Фрунзенский район, Тейковский пер /площадь победы",Ивановская область, Иваново, Фрунзенский, Тейковский пер /площадь победы,,56.9929193,40.9743914,2900000
1240.009181,69,29,20,,2,False,9,,14,,,,,,False,False,False,,,,,,,False,196," Иваново,  Фрунзенский район, Богдана Хмельницкого ул",Ивановская область, Иваново, Фрунзенский, Богдана Хмельницкого ул,,56.9866422,40.9648638,2900000
4640.168359,32,17,6,,1,False,4,,5,,,,,,False,False,False,,,,,,,False,197," Иваново,  Ленинский район, Текстильщиков пр-кт,111 /риат",Ивановская область, Иваново, Ленинский, Текстильщиков пр-кт,111/риат,56.9569013,40.9910269,1320000
4725.476224,32,16,7,,1,False,3,,5,,,,,,False,False,False,,,,,,,False,198," Иваново,  Ленинский район, Текстильщиков пр-кт",Ивановская область, Иваново, Ленинский, Текстильщиков пр-кт,,56.9570864,40.9969447,1400000
6513.601498,62,45,9,,3,False,4,,9,,,,,,False,False,False,,,,,,,False,199," Иваново,  Ленинский район, Кохомское ш",Ивановская область, Иваново, Ленинский, Кохомское ш,,56.9536959,41.0432389,2350000
6513.601498,64,39,8,,3,False,5,,9,,,,,,False,False,False,,,,,,,False,200," Иваново,  Ленинский район, Кохомское ш",Ивановская область, Иваново, Ленинский, Кохомское ш,,56.9536959,41.0432389,2450000
2544.29934,40,18,14,,1,False,17,,17,,,,,,False,False,False,,,,,,,False,201," Иваново,  Ленинский район, Лежневская ул",Ивановская область, Иваново, Ленинский, Лежневская ул,,56.9744,40.9744806,1510000
3717.996,47,32,6,,2,False,5,1970,5,2,,3,4,,False,True,False,,,,,,,False,202," Иваново,  Советский район, Победы ул,13",Ивановская область, Иваново, Советский, Победы ,13,57.0222837,41.011925,1750000
2012.287179,45,30,6,,2,False,5,1974,5,1,,3,5,,False,True,False,,,,,,,False,203," Иваново,  Октябрьский район, Октябрьская ул,24",Ивановская область, Иваново, Октябрьский, Октябрьская ,24,57.014297,40.982206,2200000
1732.844591,37,18,6,,1,False,4,,5,,,,,,False,False,False,,,,,,,False,204," Иваново,  Ленинский район, Фридриха Энгельса пр-кт,82",Ивановская область, Иваново, Ленинский, Фридриха Энгельса пр-кт,82,57.0092029,40.9896119,1550000
4909.885542,65,55,10,,3,False,2,1995,9,2,,3,7,,False,True,False,,,,,,,False,205," Иваново,  Октябрьский район, Дюковская ул,21",Ивановская область, Иваново, Октябрьский, Дюковская ,21,57.0326919,40.9232668,2850000
1555.950911,77,65,10,,4,False,3,1933,5,1,,7,5,,False,True,False,,,,,,,False,206," Иваново,  Октябрьский район, Громобоя ул,15",Ивановская область, Иваново, Октябрьский, Громобоя ,15,57.0109264,40.9762765,3450000
2729.033559,35,20,9,,1,False,5,1988,6,2,,3,5,,False,True,False,,,,,,,False,207," Иваново,  Ленинский район, Полевая 1-я ул,37",Ивановская область, Иваново, Ленинский, Полевая 1-я ,37,56.973079,40.979502,1550000
3635.161657,57,35,9,,2,False,17,,17,,,,,,False,False,False,,,,,,,False,208," Иваново,  Ленинский район, Московский мкр,14а,корп.2",Ивановская область, Иваново, Ленинский, Московский мкр,14а,56.9662324,40.9904645,2800000
5107.136429,65,39,9,,3,False,1,,10,,,,,,False,False,False,,,,,,,False,209," Иваново,  Ленинский район, Куконковых ул,146",Ивановская область, Иваново, Ленинский, Куконковых ,146,56.961762,41.0249021,2550000
2086.979505,64,40,6,,3,False,5,1977,5,2,,3,5,,False,True,False,,,,,,,False,210," Иваново,  Ленинский район, Коммунальная ул,5",Ивановская область, Иваново, Ленинский, Коммунальная ,5,56.989063,41.002415,1900000
7164.418118,60,38,10,,2,False,3,,9,,,,,,False,False,False,,,,,,,False,211," Иваново,  Ленинский район, Кохомское ш,17",Ивановская область, Иваново, Ленинский, Кохомское ш,17,56.9526113,41.056598,2700000
872.2841982,60,37,9,,3,False,6,1994,9,2,,3,5,,True,True,False,,,,,,,False,212," Иваново,  Фрунзенский район, Богдана Хмельницкого ул,7",Ивановская область, Иваново, Фрунзенский, Богдана Хмельницкого ,7,56.989377,40.970514,3700000
5065.190785,50,34,6,,2,False,1,1988,5,2,,3,4,,True,True,False,,,,,,,False,213," Иваново,  Ленинский район, Кавалерийская ул,46А",Ивановская область, Иваново, Ленинский, Кавалерийская ,46А,56.961118,41.022305,1900000
3429.635069,30,18,6,,1,False,1,,5,,,,,,False,False,False,,,,,,,False,214," Иваново,  Фрунзенский район, Ташкентская ул,108",Ивановская область, Иваново, Фрунзенский, Ташкентская ,108,56.966892,40.9611651,1350000
1156.544387,36,19,3,,1,False,11,,17,,,,,,False,False,False,,,,,,,False,215," Иваново,  Фрунзенский район, Малая Московская ул,62",Ивановская область, Иваново, Фрунзенский, Малая Московская ,62,56.9884152,40.9815916,2000000
3037.197512,68,36,12,,2,False,3,,17,,,,,,False,False,False,,,,,,,False,216," Иваново,  Ленинский район, Полевая 2-я ул,31 /ул.Генерала Хлебникова",Ивановская область, Иваново, Ленинский, Полевая 2-я ,31/ул.ГенералаХлебникова,56.9712849,40.9871007,2487000
1615.080887,52,20,12,,1,False,17,2017,20,2,,3,8,,True,True,False,,,,,,,False,217," Иваново,  Ленинский район, Наумова ул,5",Ивановская область, Иваново, Ленинский, Наумова ,5,57.0021522,40.996446,2320000
1105.605358,73,38,14,,2,False,9,,10,,,,,,False,False,False,,,,,,,False,218," Иваново,  Фрунзенский район, Красных Зорь проезд,8",Ивановская область, Иваново, Фрунзенский, Красных Зорь проезд,8,57.001519,40.954974,4600000
2677.653058,45,16,11,,1,False,9,,17,,,,,,False,False,False,,,,,,,False,219," Иваново,  Ленинский район, Полевая 2-я пл",Ивановская область, Иваново, Ленинский, Полевая 2-я пл,,56.9737395,40.9811957,1663000
2677.653058,64,35,12,,2,False,10,,17,,,,,,False,False,False,,,,,,,False,220," Иваново,  Ленинский район, Полевая 2-я пл",Ивановская область, Иваново, Ленинский, Полевая 2-я пл,,56.9737395,40.9811957,2371000
2677.653058,68,36,12,,2,False,9,,17,,,,,,False,False,False,,,,,,,False,221," Иваново,  Ленинский район, Полевая 2-я пл",Ивановская область, Иваново, Ленинский, Полевая 2-я пл,,56.9737395,40.9811957,2517000
2677.653058,45,16,11,,1,False,9,,17,,,,,,False,False,False,,,,,,,False,222," Иваново,  Ленинский район, Полевая 2-я пл",Ивановская область, Иваново, Ленинский, Полевая 2-я пл,,56.9737395,40.9811957,1652000
2677.653058,68,30,13,,2,False,9,,17,,,,,,False,False,False,,,,,,,False,223," Иваново,  Ленинский район, Полевая 2-я пл",Ивановская область, Иваново, Ленинский, Полевая 2-я пл,,56.9737395,40.9811957,2517000
2857.73596,35,14,10,,1,False,12,,14,,,,,,False,False,False,,,,,,,False,224," Иваново,  Фрунзенский район, Воронина ул,5 а",Ивановская область, Иваново, Фрунзенский, Воронина ,5а,56.971523,40.9709699,1424000
2857.73596,80,42,12,,3,False,12,,14,,,,,,False,False,False,,,,,,,False,225," Иваново,  Фрунзенский район, Воронина ул,5 а",Ивановская область, Иваново, Фрунзенский, Воронина ,5а,56.971523,40.9709699,3172000
2857.73596,69,39,12,,3,False,3,,14,,,,,,False,False,False,,,,,,,False,226," Иваново,  Фрунзенский район, Воронина ул,5 а",Ивановская область, Иваново, Фрунзенский, Воронина ,5а,56.971523,40.9709699,2670000
2857.73596,36,13,10,,1,False,2,,14,,,,,,False,False,False,,,,,,,False,227," Иваново,  Фрунзенский район, Воронина ул,5а",Ивановская область, Иваново, Фрунзенский, Воронина ,5а,56.971523,40.9709699,1395000
2857.73596,25,17,7,,1,False,10,,14,,,,,,False,False,False,,,,,,,False,228," Иваново,  Фрунзенский район, Воронина ул,5",Ивановская область, Иваново, Фрунзенский, Воронина ,5,56.971523,40.9709699,1125000
2857.73596,47,18,17,,1,False,2,,14,,,,,,False,False,False,,,,,,,False,229," Иваново,  Фрунзенский район, Воронина ул,5",Ивановская область, Иваново, Фрунзенский, Воронина ,5,56.971523,40.9709699,1846000
3607.155249,40,25,6,,2,False,4,1977,5,2,,3,5,,False,True,False,,,,,,,False,410," Иваново,  Ленинский район, Панина ул,19",Ивановская область, Иваново, Ленинский, Панина ,19,56.970629,41.005465,1750000
2857.73596,80,39,13,,3,False,10,,14,,,,,,False,False,False,,,,,,,False,230," Иваново,  Фрунзенский район, Воронина ул,5",Ивановская область, Иваново, Фрунзенский, Воронина ,5,56.971523,40.9709699,3331000
2857.73596,74,38,13,,3,False,11,,14,,,,,,False,False,False,,,,,,,False,231," Иваново,  Фрунзенский район, Воронина ул,5",Ивановская область, Иваново, Фрунзенский, Воронина ,5,56.971523,40.9709699,2944000
2117.706463,44,16,11,,1,False,9,,17,,,,,,False,False,False,,,,,,,False,232," Иваново,  Ленинский район, Полевая 2-я ул,,корп.1",Ивановская область, Иваново, Ленинский, Полевая 2-я ,,56.9790434,40.9818517,1570000
2117.706463,68,35,12,,2,False,9,,17,,,,,,False,False,False,,,,,,,False,233," Иваново,  Ленинский район, Полевая 2-я ул,,корп.1",Ивановская область, Иваново, Ленинский, Полевая 2-я ,,56.9790434,40.9818517,2420000
405.8881673,52,22,13,,1,False,1,,8,,,,,,False,False,False,,,,,,,False,234," Иваново,  Фрунзенский район, Зеленая ул,39 /пл. Победы",Ивановская область, Иваново, Фрунзенский, Зеленая ,39/пл.Победы,56.9939806,40.9682539,2300000
405.8881673,107,86,14,,3,False,1,,8,,,,,,False,False,False,,,,,,,False,235," Иваново,  Фрунзенский район, Зеленая ул,39",Ивановская область, Иваново, Фрунзенский, Зеленая ,39,56.9939806,40.9682539,4500000
405.8881673,160,125,31,,3,False,8,,8,,,,,,False,False,False,,,,,,,False,236," Иваново,  Фрунзенский район, Зеленая ул,39 /пл. Победы",Ивановская область, Иваново, Фрунзенский, Зеленая ,39/пл.Победы,56.9939806,40.9682539,6400000
2857.73596,50,20,16,,1,False,13,,14,,,,,,False,False,False,,,,,,,False,237," Иваново,  Фрунзенский район, Воронина ул,5а /Лодзь",Ивановская область, Иваново, Фрунзенский, Воронина ,5а/Лодзь,56.971523,40.9709699,1963000
1337.349172,131,110,12,,5,False,4,,5,,,,,,False,False,False,,,,,,,False,238," Иваново,  Ленинский район, Лежневская ул,46",Ивановская область, Иваново, Ленинский, Лежневская ,46,56.986579,40.9817183,5950000
1337.349172,153,130,12,,4,False,4,,5,,,,,,False,False,False,,,,,,,False,239," Иваново,  Фрунзенский район, Лежневская ул,46",Ивановская область, Иваново, Фрунзенский, Лежневская ,46,56.986579,40.9817183,6950000
2677.653058,44,42,13,,1,False,9,,17,,,,,,False,False,False,,,,,,,False,240," Иваново,  Ленинский район, Полевая 2-я ул",Ивановская область, Иваново, Ленинский, Полевая 2-я ул,,56.9737395,40.9811957,1570000
2677.653058,44,42,15,,1,False,9,,17,,,,,,False,False,False,,,,,,,False,241," Иваново,  Ленинский район, Полевая 2-я ул",Ивановская область, Иваново, Ленинский, Полевая 2-я ул,,56.9737395,40.9811957,1580000
2677.653058,68,36,12,,2,False,9,,17,,,,,,False,False,False,,,,,,,False,242," Иваново,  Ленинский район, Полевая 2-я ул",Ивановская область, Иваново, Ленинский, Полевая 2-я ул,,56.9737395,40.9811957,2420000
2857.73596,137,60,21,,4,False,14,,14,,,,,,False,False,False,,,,,,,False,243," Иваново,  Фрунзенский район, Воронина ул,5а",Ивановская область, Иваново, Фрунзенский, Воронина ,5а,56.971523,40.9709699,5227000
2857.73596,73,38,14,,3,False,14,,14,,,,,,False,False,False,,,,,,,False,244," Иваново,  Фрунзенский район, Воронина ул,5а",Ивановская область, Иваново, Фрунзенский, Воронина ,5а,56.971523,40.9709699,2944000
2857.73596,69,34,15,,3,False,14,,14,,,,,,False,False,False,,,,,,,False,245," Иваново,  Фрунзенский район, Воронина ул,5а",Ивановская область, Иваново, Фрунзенский, Воронина ,5а,56.971523,40.9709699,2767000
2857.73596,72,37,14,,3,False,7,,14,,,,,,False,False,False,,,,,,,False,246," Иваново,  Фрунзенский район, Воронина ул,5а",Ивановская область, Иваново, Фрунзенский, Воронина ,5а,56.971523,40.9709699,2869000
2857.73596,74,39,15,,3,False,11,,14,,,,,,False,False,False,,,,,,,False,247," Иваново,  Фрунзенский район, Воронина ул,5а",Ивановская область, Иваново, Фрунзенский, Воронина ,5а,56.971523,40.9709699,2943000
2857.73596,74,39,15,,3,False,12,,14,,,,,,False,False,False,,,,,,,False,248," Иваново,  Фрунзенский район, Воронина ул,5а",Ивановская область, Иваново, Фрунзенский, Воронина ,5а,56.971523,40.9709699,2797000
2857.73596,74,39,15,,3,False,13,,14,,,,,,False,False,False,,,,,,,False,249," Иваново,  Фрунзенский район, Воронина ул,5а",Ивановская область, Иваново, Фрунзенский, Воронина ,5а,56.971523,40.9709699,2943000
2857.73596,74,39,15,,3,False,14,,14,,,,,,False,False,False,,,,,,,False,250," Иваново,  Фрунзенский район, Воронина ул,5а",Ивановская область, Иваново, Фрунзенский, Воронина ,5а,56.971523,40.9709699,2943000
2857.73596,56,27,11,,2,False,9,,14,,,,,,False,False,False,,,,,,,False,251," Иваново,  Фрунзенский район, Воронина ул,5а",Ивановская область, Иваново, Фрунзенский, Воронина ,5а,56.971523,40.9709699,2464000
2857.73596,57,28,11,,2,False,11,,14,,,,,,False,False,False,,,,,,,False,252," Иваново,  Фрунзенский район, Воронина ул,5а",Ивановская область, Иваново, Фрунзенский, Воронина ,5а,56.971523,40.9709699,2350000
2857.73596,35,13,10,,1,False,2,,14,,,,,,False,False,False,,,,,,,False,253," Иваново,  Фрунзенский район, Воронина ул,5а",Ивановская область, Иваново, Фрунзенский, Воронина ,5а,56.971523,40.9709699,1395000
2857.73596,33,12,10,,1,False,10,,14,,,,,,False,False,False,,,,,,,False,254," Иваново,  Фрунзенский район, Воронина ул,5а",Ивановская область, Иваново, Фрунзенский, Воронина ,5а,56.971523,40.9709699,1492000
2857.73596,34,12,10,,1,False,11,,14,,,,,,False,False,False,,,,,,,False,255," Иваново,  Фрунзенский район, Воронина ул,5а",Ивановская область, Иваново, Фрунзенский, Воронина ,5а,56.971523,40.9709699,1424000
2857.73596,34,12,10,,1,False,12,,14,,,,,,False,False,False,,,,,,,False,256," Иваново,  Фрунзенский район, Воронина ул,5а",Ивановская область, Иваново, Фрунзенский, Воронина ,5а,56.971523,40.9709699,1424000
2857.73596,34,12,10,,1,False,13,,14,,,,,,False,False,False,,,,,,,False,257," Иваново,  Фрунзенский район, Воронина ул,5а",Ивановская область, Иваново, Фрунзенский, Воронина ,5а,56.971523,40.9709699,1424000
2857.73596,80,42,13,,3,False,12,,14,,,,,,False,False,False,,,,,,,False,258," Иваново,  Фрунзенский район, Воронина ул,5а",Ивановская область, Иваново, Фрунзенский, Воронина ,5а,56.971523,40.9709699,3172000
2857.73596,80,42,13,,3,False,13,,14,,,,,,False,False,False,,,,,,,False,259," Иваново,  Фрунзенский район, Воронина ул,5а",Ивановская область, Иваново, Фрунзенский, Воронина ,5а,56.971523,40.9709699,3172000
2857.73596,51,21,17,,1,False,11,,14,,,,,,False,False,False,,,,,,,False,260," Иваново,  Фрунзенский район, Воронина ул,5а",Ивановская область, Иваново, Фрунзенский, Воронина ,5а,56.971523,40.9709699,2064000
2857.73596,51,21,17,,1,False,13,,14,,,,,,False,False,False,,,,,,,False,261," Иваново,  Фрунзенский район, Воронина ул,5а",Ивановская область, Иваново, Фрунзенский, Воронина ,5а,56.971523,40.9709699,2064000
2857.73596,47,18,17,,1,False,2,,14,,,,,,False,False,False,,,,,,,False,262," Иваново,  Фрунзенский район, Воронина ул,5а",Ивановская область, Иваново, Фрунзенский, Воронина ,5а,56.971523,40.9709699,1846000
2677.653058,64,27,13,,2,False,9,,17,,,,,,False,False,False,,,,,,,False,263," Иваново,  Ленинский район, Полевая 2-я ул",Ивановская область, Иваново, Ленинский, Полевая 2-я ул,,56.9737395,40.9811957,2190000
2677.653058,69,36,12,,2,False,9,,17,,,,,,False,False,False,,,,,,,False,264," Иваново,  Ленинский район, Полевая 2-я ул",Ивановская область, Иваново, Ленинский, Полевая 2-я ул,,56.9737395,40.9811957,2345000
2677.653058,45,16,11,,1,False,9,,17,,,,,,False,False,False,,,,,,,False,265," Иваново,  Ленинский район, Полевая 2-я ул",Ивановская область, Иваново, Ленинский, Полевая 2-я ул,,56.9737395,40.9811957,1520000
4359.610211,66,32,13,,2,False,9,,9,,,,,,False,False,False,,,,,,,False,266," Иваново,  Фрунзенский район, Отдельная ул,4",Ивановская область, Иваново, Фрунзенский, Отдельная ,4,56.9580557,40.9686442,2378000
2069.619779,73,78,14,,2,False,9,,10,,,,,,False,False,False,,,,,,,False,267," Иваново,  Фрунзенский район, Красных Зорь проезд",Ивановская область, Иваново, Фрунзенский, Красных Зорь проезд,,57.0031743,40.9390652,4600000
3425.407585,31,19,6,,1,False,5,1965,5,2,,3,4,,False,True,False,,,,,,,False,268," Иваново,  Ленинский район, Диановых ул,14",Ивановская область, Иваново, Ленинский, Диановых ,14,56.9667695,40.9798743,1550000
2857.73596,79,41,12,,3,False,12,,14,,,,,,False,False,False,,,,,,,False,269," Иваново,  Фрунзенский район, Воронина ул,5а",Ивановская область, Иваново, Фрунзенский, Воронина ,5а,56.971523,40.9709699,3172000
2857.73596,79,41,12,,3,False,11,,14,,,,,,False,False,False,,,,,,,False,270," Иваново,  Фрунзенский район, Воронина ул,5а",Ивановская область, Иваново, Фрунзенский, Воронина ,5а,56.971523,40.9709699,3252000
2857.73596,79,41,12,,3,False,10,,14,,,,,,False,False,False,,,,,,,False,271," Иваново,  Фрунзенский район, Воронина ул,5а",Ивановская область, Иваново, Фрунзенский, Воронина ,5а,56.971523,40.9709699,3331000
2857.73596,79,41,12,,3,False,9,,14,,,,,,False,False,False,,,,,,,False,272," Иваново,  Фрунзенский район, Воронина ул,5а",Ивановская область, Иваново, Фрунзенский, Воронина ,5а,56.971523,40.9709699,3331000
2857.73596,79,41,12,,3,False,8,,14,,,,,,False,False,False,,,,,,,False,273," Иваново,  Фрунзенский район, Воронина ул,5а",Ивановская область, Иваново, Фрунзенский, Воронина ,5а,56.971523,40.9709699,3331000
2857.73596,57,28,11,,2,False,11,,14,,,,,,False,False,False,,,,,,,False,274," Иваново,  Фрунзенский район, Воронина ул,5а",Ивановская область, Иваново, Фрунзенский, Воронина ,5а,56.971523,40.9709699,2350000
2857.73596,57,28,11,,2,False,9,,14,,,,,,False,False,False,,,,,,,False,275," Иваново,  Фрунзенский район, Воронина ул,5а",Ивановская область, Иваново, Фрунзенский, Воронина ,5а,56.971523,40.9709699,2464000
2857.73596,25,17,7,,1,False,10,,14,,,,,,False,False,False,,,,,,,False,276," Иваново,  Фрунзенский район, Воронина ул,5а",Ивановская область, Иваново, Фрунзенский, Воронина ,5а,56.971523,40.9709699,1125000
2857.73596,69,33,18,,2,False,14,,14,,,,,,False,False,False,,,,,,,False,277," Иваново,  Фрунзенский район, Воронина ул,5а",Ивановская область, Иваново, Фрунзенский, Воронина ,5а,56.971523,40.9709699,2837000
2857.73596,68,33,18,,2,False,9,,14,,,,,,False,False,False,,,,,,,False,278," Иваново,  Фрунзенский район, Воронина ул,5а",Ивановская область, Иваново, Фрунзенский, Воронина ,5а,56.971523,40.9709699,2866000
2857.73596,64,26,17,,2,False,5,,14,,,,,,False,False,False,,,,,,,False,279," Иваново,  Фрунзенский район, Воронина ул,5а",Ивановская область, Иваново, Фрунзенский, Воронина ,5а,56.971523,40.9709699,2502000
2857.73596,74,38,12,,3,False,2,,14,,,,,,False,False,False,,,,,,,False,280," Иваново,  Фрунзенский район, Воронина ул,5а",Ивановская область, Иваново, Фрунзенский, Воронина ,5а,56.971523,40.9709699,2835000
2857.73596,33,11,10,,1,False,14,,14,,,,,,False,False,False,,,,,,,False,281," Иваново,  Фрунзенский район, Воронина ул,5а",Ивановская область, Иваново, Фрунзенский, Воронина ,5а,56.971523,40.9709699,1424000
2857.73596,33,11,10,,1,False,13,,14,,,,,,False,False,False,,,,,,,False,282," Иваново,  Фрунзенский район, Воронина ул,5а",Ивановская область, Иваново, Фрунзенский, Воронина ,5а,56.971523,40.9709699,1424000
2857.73596,33,11,10,,1,False,12,,14,,,,,,False,False,False,,,,,,,False,283," Иваново,  Фрунзенский район, Воронина ул,5а",Ивановская область, Иваново, Фрунзенский, Воронина ,5а,56.971523,40.9709699,1424000
2857.73596,33,11,10,,1,False,11,,14,,,,,,False,False,False,,,,,,,False,284," Иваново,  Фрунзенский район, Воронина ул,5а",Ивановская область, Иваново, Фрунзенский, Воронина ,5а,56.971523,40.9709699,1424000
2857.73596,33,11,10,,1,False,10,,14,,,,,,False,False,False,,,,,,,False,285," Иваново,  Фрунзенский район, Воронина ул,5а",Ивановская область, Иваново, Фрунзенский, Воронина ,5а,56.971523,40.9709699,1492000
4440.712121,60,39,7,,3,False,3,1967,5,2,,3,4,,False,True,False,,,,,,,False,286," Иваново,  Ленинский район, Шубиных ул,12",Ивановская область, Иваново, Ленинский, Шубиных ,12,56.9619602,41.0057464,1950000
2857.73596,33,11,10,,1,False,9,,14,,,,,,False,False,False,,,,,,,False,287," Иваново,  Фрунзенский район, Воронина ул,5а",Ивановская область, Иваново, Фрунзенский, Воронина ,5а,56.971523,40.9709699,1492000
2857.73596,33,11,10,,1,False,8,,14,,,,,,False,False,False,,,,,,,False,288," Иваново,  Фрунзенский район, Воронина ул,5а",Ивановская область, Иваново, Фрунзенский, Воронина ,5а,56.971523,40.9709699,1492000
2857.73596,34,12,10,,1,False,2,,14,,,,,,False,False,False,,,,,,,False,289," Иваново,  Фрунзенский район, Воронина ул,5а",Ивановская область, Иваново, Фрунзенский, Воронина ,5а,56.971523,40.9709699,1396000
2857.73596,39,16,11,,1,False,10,,14,,,,,,False,False,False,,,,,,,False,290," Иваново,  Фрунзенский район, Воронина ул,5а",Ивановская область, Иваново, Фрунзенский, Воронина ,5а,56.971523,40.9709699,1746000
2857.73596,39,16,11,,1,False,9,,14,,,,,,False,False,False,,,,,,,False,291," Иваново,  Фрунзенский район, Воронина ул,5а",Ивановская область, Иваново, Фрунзенский, Воронина ,5а,56.971523,40.9709699,1746000
2857.73596,39,16,11,,1,False,8,,14,,,,,,False,False,False,,,,,,,False,292," Иваново,  Фрунзенский район, Воронина ул,5а",Ивановская область, Иваново, Фрунзенский, Воронина ,5а,56.971523,40.9709699,1746000
4792.895713,45,29,6,,2,False,4,1970,5,2,,3,4,,False,True,False,,,,,,,False,420," Иваново,  Ленинский район, Шубиных ул,31",Ивановская область, Иваново, Ленинский, Шубиных ,31,56.9588797,41.0074644,1750000
2857.73596,36,12,11,,1,False,4,,14,,,,,,False,False,False,,,,,,,False,293," Иваново,  Фрунзенский район, Воронина ул,5а",Ивановская область, Иваново, Фрунзенский, Воронина ,5а,56.971523,40.9709699,1506000
2857.73596,36,12,11,,1,False,3,,14,,,,,,False,False,False,,,,,,,False,294," Иваново,  Фрунзенский район, Воронина ул,5а",Ивановская область, Иваново, Фрунзенский, Воронина ,5а,56.971523,40.9709699,1506000
2857.73596,50,20,16,,1,False,13,,14,,,,,,False,False,False,,,,,,,False,295," Иваново,  Фрунзенский район, Воронина ул,5а",Ивановская область, Иваново, Фрунзенский, Воронина ,5а,56.971523,40.9709699,2064000
2857.73596,50,20,16,,1,False,11,,14,,,,,,False,False,False,,,,,,,False,296," Иваново,  Фрунзенский район, Воронина ул,5а",Ивановская область, Иваново, Фрунзенский, Воронина ,5а,56.971523,40.9709699,2064000
2857.73596,50,20,16,,1,False,10,,14,,,,,,False,False,False,,,,,,,False,297," Иваново,  Фрунзенский район, Воронина ул,5а",Ивановская область, Иваново, Фрунзенский, Воронина ,5а,56.971523,40.9709699,2165000
2857.73596,50,20,16,,1,False,9,,14,,,,,,False,False,False,,,,,,,False,298," Иваново,  Фрунзенский район, Воронина ул,5а",Ивановская область, Иваново, Фрунзенский, Воронина ,5а,56.971523,40.9709699,2165000
2857.73596,50,20,16,,1,False,8,,14,,,,,,False,False,False,,,,,,,False,299," Иваново,  Фрунзенский район, Воронина ул,5а",Ивановская область, Иваново, Фрунзенский, Воронина ,5а,56.971523,40.9709699,2165000
2857.73596,47,17,16,,1,False,2,,14,,,,,,False,False,False,,,,,,,False,300," Иваново,  Фрунзенский район, Воронина ул,5а",Ивановская область, Иваново, Фрунзенский, Воронина ,5а,56.971523,40.9709699,1846000
2857.73596,29,10,6,,1,False,6,,14,,,,,,False,False,False,,,,,,,False,301," Иваново,  Фрунзенский район, Воронина ул,5а",Ивановская область, Иваново, Фрунзенский, Воронина ,5а,56.971523,40.9709699,1243000
3626.208416,46,22,9,,1,False,13,,17,,,,,,False,False,False,,,,,,,False,578," Иваново,  Ленинский район, ",Ивановская область, Иваново, Ленинский, ,,56.9726955,41.0108145,1730000
2857.73596,73,38,14,,3,False,13,,14,,,,,,False,False,False,,,,,,,False,302," Иваново,  Фрунзенский район, Воронина ул,5а",Ивановская область, Иваново, Фрунзенский, Воронина ,5а,56.971523,40.9709699,2944000
2857.73596,73,38,14,,3,False,12,,14,,,,,,False,False,False,,,,,,,False,303," Иваново,  Фрунзенский район, Воронина ул,5а",Ивановская область, Иваново, Фрунзенский, Воронина ,5а,56.971523,40.9709699,2944000
2857.73596,73,38,14,,3,False,12,,14,,,,,,False,False,False,,,,,,,False,304," Иваново,  Фрунзенский район, Воронина ул,5а",Ивановская область, Иваново, Фрунзенский, Воронина ,5а,56.971523,40.9709699,2944000
2857.73596,73,38,14,,3,False,10,,14,,,,,,False,False,False,,,,,,,False,305," Иваново,  Фрунзенский район, Воронина ул,5а",Ивановская область, Иваново, Фрунзенский, Воронина ,5а,56.971523,40.9709699,3091000
2857.73596,73,38,14,,3,False,9,,14,,,,,,False,False,False,,,,,,,False,306," Иваново,  Фрунзенский район, Воронина ул,5а",Ивановская область, Иваново, Фрунзенский, Воронина ,5а,56.971523,40.9709699,3091000
2857.73596,73,38,14,,3,False,8,,14,,,,,,False,False,False,,,,,,,False,307," Иваново,  Фрунзенский район, Воронина ул,5а",Ивановская область, Иваново, Фрунзенский, Воронина ,5а,56.971523,40.9709699,3091000
2857.73596,78,42,12,,3,False,10,,14,,,,,,False,False,False,,,,,,,False,308," Иваново,  Фрунзенский район, Воронина ул,5а",Ивановская область, Иваново, Фрунзенский, Воронина ,5а,56.971523,40.9709699,3331000
2857.73596,72,38,14,,3,False,9,,14,,,,,,False,False,False,,,,,,,False,309," Иваново,  Фрунзенский район, Воронина ул,5а",Ивановская область, Иваново, Фрунзенский, Воронина ,5а,56.971523,40.9709699,3091000
2857.73596,72,38,14,,3,False,8,,14,,,,,,False,False,False,,,,,,,False,310," Иваново,  Фрунзенский район, Воронина ул,5а",Ивановская область, Иваново, Фрунзенский, Воронина ,5а,56.971523,40.9709699,3091000
2454.438339,103,62,18,,3,False,3,,14,,,,,,False,False,False,,,,,,,False,311," Иваново,  Ленинский район, Полевая 1-я пл /Лодзь",Ивановская область, Иваново, Ленинский, Полевая 1-я пл /Лодзь,,56.975195,40.9741038,5665000
2454.438339,51,24,14,,1,False,3,,14,,,,,,False,False,False,,,,,,,False,312," Иваново,  Ленинский район, Полевая 1-я пл /Лодзь",Ивановская область, Иваново, Ленинский, Полевая 1-я пл /Лодзь,,56.975195,40.9741038,2805000
4124.171057,27,14,5,,1,False,1,,5,,,,,,False,False,False,,,,,,,False,313," Иваново,  Ленинский район, Строителей пр-кт,114",Ивановская область, Иваново, Ленинский, Строителей пр-кт,114,56.9674197,41.0118744,1260000
2857.73596,25,16,7,,1,False,9,,14,,,,,,False,False,False,,,,,,,False,314," Иваново,  Фрунзенский район, Воронина ул,5 а",Ивановская область, Иваново, Фрунзенский, Воронина ,5а,56.971523,40.9709699,1125000
2742.341661,46,31,6,,2,False,1,1977,5,2,,3,4,,False,True,False,,,,,,,False,315," Иваново,  Фрунзенский район, Красных Зорь ул,47",Ивановская область, Иваново, Фрунзенский, Красных Зорь ,47,57.0034303,40.9276265,1850000
2122.612732,88,55,15,,3,False,8,,21,,,,,,False,False,False,,,,,,,False,316," Иваново,  Октябрьский район, Карла Маркса ул /пл. Ленина",Ивановская область, Иваново, Октябрьский, Карла Маркса ул /пл. Ленина,,57.0162491,40.96966,3300000
2113.616884,88,55,15,,3,False,13,,21,,,,,,False,False,False,,,,,,,False,317," Иваново,  Октябрьский район, Карла Маркса ул,4 /пл. Ленина",Ивановская область, Иваново, Октябрьский, Карла Маркса ,4/пл.Ленина,57.0161915,40.9716018,3300000
2122.612732,88,55,15,,3,False,14,,21,,,,,,False,False,False,,,,,,,False,318," Иваново,  Октябрьский район, Карла Маркса ул /пл. Ленина",Ивановская область, Иваново, Октябрьский, Карла Маркса ул /пл. Ленина,,57.0162491,40.96966,3300000
2122.612732,88,55,15,,3,False,20,,21,,,,,,False,False,False,,,,,,,False,319," Иваново,  Октябрьский район, Карла Маркса ул /пл. Ленина",Ивановская область, Иваново, Октябрьский, Карла Маркса ул /пл. Ленина,,57.0162491,40.96966,3300000
2122.612732,62,34,10,,2,False,17,,21,,,,,,False,False,False,,,,,,,False,320," Иваново,  Октябрьский район, Карла Маркса ул /пл. Ленина",Ивановская область, Иваново, Октябрьский, Карла Маркса ул /пл. Ленина,,57.0162491,40.96966,2400000
1323.855552,86,50,14,,2,False,2,,9,,,,,,False,False,False,,,,,,,False,321," Иваново,  Фрунзенский район, Богдана Хмельницкого ул,44 /пл. Победы",Ивановская область, Иваново, Фрунзенский, Богдана Хмельницкого ,44/пл.Победы,56.9861241,40.9634352,4250000
4726.790504,114,41,16,,4,False,1,,4,,,,,,False,False,False,,,,,,,False,322," Иваново,  Октябрьский район, Минский 2-й пер,,корп.лит1",Ивановская область, Иваново, Октябрьский, Минский 2-й пер,,57.0381064,40.9504097,4450000
1354.229982,84,38,14,,2,False,12,,16,,,,,,False,False,False,,,,,,,False,323," Иваново,  Ленинский район, Профсоюзная ул,4 /Серебряный город",Ивановская область, Иваново, Ленинский, Профсоюзная ,4/Серебряныйгород,57.0031029,40.9909373,3710000
6148.412861,82,47,14,,3,False,2,,17,,,,,,False,False,False,,,,,,,False,324," Иваново,  Ленинский район, Кохомское ш,4 /РИО",Ивановская область, Иваново, Ленинский, Кохомское ш,4/РИО,56.9567803,41.0405071,2849000
3367.212862,55,24,14,,1,False,1,,5,,,,,,False,False,False,,,,,,,False,325," Иваново,  Советский район, Короткова ул,48А2",Ивановская область, Иваново, Советский, Короткова ,48А2,57.0064833,41.0242754,1850000
1529.714888,71,40,15,,3,False,2,,17,,,,,,False,False,False,,,,,,,False,326," Иваново,  Фрунзенский район, Ленинградская ул,2",Ивановская область, Иваново, Фрунзенский, Ленинградская ,2,57.004439,40.9499459,3000000
4759.4103,46,24,9,,2,False,6,,18,,,,,,False,False,False,,,,,,,False,327," Иваново,  Ленинский район, Камвольная 2-я ул,Лит А /ТЦ Евролэнд",Ивановская область, Иваново, Ленинский, Камвольная 2-я ,ЛитА/ТЦЕвролэнд,56.966161,41.0253887,1600000
4759.4103,46,24,9,,2,False,3,,18,,,,,,False,False,False,,,,,,,False,328," Иваново,  Ленинский район, Камвольная 2-я ул,Лит А /ТЦ Евролэнд",Ивановская область, Иваново, Ленинский, Камвольная 2-я ,ЛитА/ТЦЕвролэнд,56.966161,41.0253887,1600000
4759.4103,46,24,9,,2,False,5,,18,,,,,,False,False,False,,,,,,,False,329," Иваново,  Ленинский район, Камвольная 2-я ул,Лит А /ТЦ Евролэнд",Ивановская область, Иваново, Ленинский, Камвольная 2-я ,ЛитА/ТЦЕвролэнд,56.966161,41.0253887,1600000
4759.4103,46,24,9,,2,False,12,,18,,,,,,False,False,False,,,,,,,False,330," Иваново,  Ленинский район, Камвольная 3-я ул,лит А /ТЦ Евролэнд",Ивановская область, Иваново, Ленинский, Камвольная 3-я ,литА/ТЦЕвролэнд,56.966161,41.0253887,1600000
4759.4103,35,19,8,,1,False,5,,18,,,,,,False,False,False,,,,,,,False,331," Иваново,  Ленинский район, Камвольная 2-я ул,лит Б /ТЦ Евролэнд",Ивановская область, Иваново, Ленинский, Камвольная 2-я ,литБ/ТЦЕвролэнд,56.966161,41.0253887,1176000
4759.4103,54,30,12,,2,False,7,,18,,,,,,False,False,False,,,,,,,False,332," Иваново,  Ленинский район, Камвольная 2-я ул,лит Б /ТЦ Евролэнд",Ивановская область, Иваново, Ленинский, Камвольная 2-я ,литБ/ТЦЕвролэнд,56.966161,41.0253887,1849000
1866.878399,63,38,9,,3,False,5,1982,9,2,,3,4,,False,True,False,,,,,,,False,333," Иваново,  Ленинский район, Рязанская ул,9",Ивановская область, Иваново, Ленинский, Рязанская ,9,56.984093,40.990617,2550000
2857.73596,78,41,12,,3,False,10,,14,,,,,,False,False,False,,,,,,,False,334," Иваново,  Фрунзенский район, Воронина ул,5а /ул. Лежневская",Ивановская область, Иваново, Фрунзенский, Воронина ,5а/ул.Лежневская,56.971523,40.9709699,3331000
2857.73596,78,41,12,,3,False,10,,14,,,,,,False,False,False,,,,,,,False,335," Иваново,  Фрунзенский район, Воронина ул,5а /ул. Лежневская",Ивановская область, Иваново, Фрунзенский, Воронина ,5а/ул.Лежневская,56.971523,40.9709699,3331000
2857.73596,68,34,18,,2,False,14,,14,,,,,,False,False,False,,,,,,,False,336," Иваново,  Фрунзенский район, Воронина ул,5а /ул. Лежневская",Ивановская область, Иваново, Фрунзенский, Воронина ,5а/ул.Лежневская,56.971523,40.9709699,2837000
2857.73596,33,11,10,,1,False,14,,14,,,,,,False,False,False,,,,,,,False,337," Иваново,  Фрунзенский район, Воронина ул,5а /ул. Лежневская",Ивановская область, Иваново, Фрунзенский, Воронина ,5а/ул.Лежневская,56.971523,40.9709699,1424000
2857.73596,33,11,10,,1,False,10,,14,,,,,,False,False,False,,,,,,,False,338," Иваново,  Фрунзенский район, Воронина ул,5а /ул. Лежневская",Ивановская область, Иваново, Фрунзенский, Воронина ,5а/ул.Лежневская,56.971523,40.9709699,1492000
2857.73596,33,11,10,,1,False,8,,14,,,,,,False,False,False,,,,,,,False,339," Иваново,  Фрунзенский район, Воронина ул,5а /ул. Лежневская",Ивановская область, Иваново, Фрунзенский, Воронина ,5а/ул.Лежневская,56.971523,40.9709699,1492000
2857.73596,48,20,16,,1,False,13,,14,,,,,,False,False,False,,,,,,,False,340," Иваново,  Фрунзенский район, Воронина ул,5а /ул. Лежневская",Ивановская область, Иваново, Фрунзенский, Воронина ,5а/ул.Лежневская,56.971523,40.9709699,2064000
2857.73596,48,20,16,,1,False,11,,14,,,,,,False,False,False,,,,,,,False,341," Иваново,  Фрунзенский район, Воронина ул,5а /ул. Лежневская",Ивановская область, Иваново, Фрунзенский, Воронина ,5а/ул.Лежневская,56.971523,40.9709699,2064000
2857.73596,48,20,16,,1,False,10,,14,,,,,,False,False,False,,,,,,,False,342," Иваново,  Фрунзенский район, Воронина ул,5а /ул. Лежневская",Ивановская область, Иваново, Фрунзенский, Воронина ,5а/ул.Лежневская,56.971523,40.9709699,2165000
2857.73596,48,20,16,,1,False,8,,14,,,,,,False,False,False,,,,,,,False,343," Иваново,  Фрунзенский район, Воронина ул,5а /ул. Лежневская",Ивановская область, Иваново, Фрунзенский, Воронина ,5а/ул.Лежневская,56.971523,40.9709699,2165000
2857.73596,48,20,16,,1,False,8,,14,,,,,,False,False,False,,,,,,,False,344," Иваново,  Фрунзенский район, Воронина ул,5а /ул. Лежневская",Ивановская область, Иваново, Фрунзенский, Воронина ,5а/ул.Лежневская,56.971523,40.9709699,2165000
2857.73596,72,38,14,,3,False,12,,14,,,,,,False,False,False,,,,,,,False,345," Иваново,  Фрунзенский район, Воронина ул,5а /ул. Лежневская",Ивановская область, Иваново, Фрунзенский, Воронина ,5а/ул.Лежневская,56.971523,40.9709699,2944000
2857.73596,72,38,14,,3,False,10,,14,,,,,,False,False,False,,,,,,,False,346," Иваново,  Фрунзенский район, Воронина ул,5а /ул. Лежневская",Ивановская область, Иваново, Фрунзенский, Воронина ,5а/ул.Лежневская,56.971523,40.9709699,3091000
2857.73596,72,38,14,,3,False,9,,14,,,,,,False,False,False,,,,,,,False,347," Иваново,  Фрунзенский район, Воронина ул,5а /ул. Лежневская",Ивановская область, Иваново, Фрунзенский, Воронина ,5а/ул.Лежневская,56.971523,40.9709699,3091000
2857.73596,73,38,14,,3,False,8,,14,,,,,,False,False,False,,,,,,,False,348," Иваново,  Фрунзенский район, Воронина ул,5а /ул. Лежневская",Ивановская область, Иваново, Фрунзенский, Воронина ,5а/ул.Лежневская,56.971523,40.9709699,3091000
5164.777627,49,20,14,,1,False,2,,18,,,,,,False,False,False,,,,,,,False,349," Иваново,  Октябрьский район, Дюковская ул,27,корп.а",Ивановская область, Иваново, Октябрьский, Дюковская ,27,57.0353706,40.9229154,1770000
5164.777627,48,21,9,,1,False,1,,18,,,,,,False,False,False,,,,,,,False,350," Иваново,  Октябрьский район, Дюковская ул,27,корп.а",Ивановская область, Иваново, Октябрьский, Дюковская ,27,57.0353706,40.9229154,1750000
2857.73596,33,11,10,,1,False,8,,14,,,,,,False,False,False,,,,,,,False,351," Иваново,  Фрунзенский район, Воронина ул,5,корп.а",Ивановская область, Иваново, Фрунзенский, Воронина ,5,56.971523,40.9709699,1492000
2857.73596,50,20,16,,1,False,8,,14,,,,,,False,False,False,,,,,,,False,352," Иваново,  Фрунзенский район, Воронина ул,5,корп.а",Ивановская область, Иваново, Фрунзенский, Воронина ,5,56.971523,40.9709699,2165000
2857.73596,79,41,12,,3,False,10,,14,,,,,,False,False,False,,,,,,,False,353," Иваново,  Фрунзенский район, Воронина ул,5,корп.а",Ивановская область, Иваново, Фрунзенский, Воронина ,5,56.971523,40.9709699,3331000
2857.73596,33,11,10,,1,False,10,,14,,,,,,False,False,False,,,,,,,False,354," Иваново,  Фрунзенский район, Воронина ул,5,корп.а",Ивановская область, Иваново, Фрунзенский, Воронина ,5,56.971523,40.9709699,1492000
2857.73596,50,20,16,,1,False,10,,14,,,,,,False,False,False,,,,,,,False,355," Иваново,  Фрунзенский район, Воронина ул,5,корп.а",Ивановская область, Иваново, Фрунзенский, Воронина ,5,56.971523,40.9709699,2165000
2857.73596,769,34,14,,3,False,2,,14,,,,,,False,False,False,,,,,,,False,356," Иваново,  Фрунзенский район, Воронина ул,5,корп.а",Ивановская область, Иваново, Фрунзенский, Воронина ,5,56.971523,40.9709699,2740000
2857.73596,49,20,16,,1,False,11,,14,,,,,,False,False,False,,,,,,,False,357," Иваново,  Фрунзенский район, Воронина ул,5,корп.а",Ивановская область, Иваново, Фрунзенский, Воронина ,5,56.971523,40.9709699,2064000
2857.73596,69,34,14,,3,False,2,,14,,,,,,False,False,False,,,,,,,False,358," Иваново,  Фрунзенский район, Воронина ул,5,корп.а",Ивановская область, Иваново, Фрунзенский, Воронина ,5,56.971523,40.9709699,2739000
2857.73596,68,34,14,,3,False,2,,14,,,,,,False,False,False,,,,,,,False,359," Иваново,  Фрунзенский район, Воронина ул,5,корп.а",Ивановская область, Иваново, Фрунзенский, Воронина ,5,56.971523,40.9709699,2739000
2857.73596,33,11,11,,1,False,10,,14,,,,,,False,False,False,,,,,,,False,360," Иваново,  Фрунзенский район, Воронина ул,5,корп.а",Ивановская область, Иваново, Фрунзенский, Воронина ,5,56.971523,40.9709699,1492000
2857.73596,49,20,16,,1,False,13,,14,,,,,,False,False,False,,,,,,,False,361," Иваново,  Фрунзенский район, Воронина ул,5,корп.а",Ивановская область, Иваново, Фрунзенский, Воронина ,5,56.971523,40.9709699,2064000
2857.73596,68,34,14,,3,False,2,,14,,,,,,False,False,False,,,,,,,False,362," Иваново,  Фрунзенский район, Воронина ул,5,корп.а",Ивановская область, Иваново, Фрунзенский, Воронина ,5,56.971523,40.9709699,2739000
2857.73596,69,33,18,,2,False,14,,14,,,,,,False,False,False,,,,,,,False,363," Иваново,  Фрунзенский район, Воронина ул,5,корп.а",Ивановская область, Иваново, Фрунзенский, Воронина ,5,56.971523,40.9709699,2837000
422.3267679,52,22,13,,1,False,1,,8,,,,,,False,False,False,,,,,,,False,364," Иваново,  Фрунзенский район, Зеленая ул,39,корп.2",Ивановская область, Иваново, Фрунзенский, Зеленая ,39,56.9939622,40.9677665,2300000
422.3267679,107,86,14,,3,False,1,,8,,,,,,False,False,False,,,,,,,False,365," Иваново,  Фрунзенский район, Зеленая ул,39,корп.2",Ивановская область, Иваново, Фрунзенский, Зеленая ,39,56.9939622,40.9677665,4500000
422.3267679,133,72,24,,3,False,8,,8,,,,,,False,False,False,,,,,,,False,366," Иваново,  Фрунзенский район, Зеленая ул,39,корп.2",Ивановская область, Иваново, Фрунзенский, Зеленая ,39,56.9939622,40.9677665,6400000
5164.777627,48,,,,1,False,1,,17,,,,,,False,False,False,,,,,,,False,367," Иваново,  Октябрьский район, Дюковская ул,27,корп.а",Ивановская область, Иваново, Октябрьский, Дюковская ,27,57.0353706,40.9229154,1750000
5164.777627,49,,,,1,False,2,,17,,,,,,False,False,False,,,,,,,False,368," Иваново,  Октябрьский район, Дюковская ул,27,корп.а",Ивановская область, Иваново, Октябрьский, Дюковская ,27,57.0353706,40.9229154,1770000
1565.981573,45,19,12,,1,False,4,2017,14,2,,3,5,,True,True,False,,,,,,,False,369," Иваново,  Ленинский район, Сакко ул,39",Ивановская область, Иваново, Ленинский, Сакко ,39,56.998916,40.9970414,1900000
923.4780583,85,45,14,,2,False,2,,10,,,,,,False,False,False,,,,,,,False,370," Иваново,  Фрунзенский район, Богдана Хмельницкого ул,44 /центральный рынок",Ивановская область, Иваново, Фрунзенский, Богдана Хмельницкого ,44/центральныйрынок,56.989267,40.9669326,4250000
1768.975405,31,18,6,,1,False,2,1968,5,1,,3,5,,False,True,False,,,,,,,False,371," Иваново,  Октябрьский район, Громобоя ул,25",Ивановская область, Иваново, Октябрьский, Громобоя ,25,57.011612,40.983711,1570000
3425.407585,30,18,6,,1,False,5,1965,5,2,,3,4,,False,True,False,,,,,,,False,372," Иваново,  Ленинский район, Диановых ул,14",Ивановская область, Иваново, Ленинский, Диановых ,14,56.9667695,40.9798743,1500000
1457.547556,51,22,11,,1,False,3,,18,,,,,,False,False,False,,,,,,,False,373," Иваново,  Ленинский район, Профсоюзная ул",Ивановская область, Иваново, Ленинский, Профсоюзная ул,,57.0016645,40.994006,2252000
838.1362514,34,30,14,,2,False,5,,5,,,,,,False,False,False,,,,,,,False,374," Иваново,  Фрунзенский район, Красных Зорь проезд,1",Ивановская область, Иваново, Фрунзенский, Красных Зорь проезд,1,57.0003335,40.9588266,1100000
1555.950911,84,63,10,,4,False,4,1933,5,1,,7,5,,False,True,False,,,,,,,False,375," Иваново,  Октябрьский район, Громобоя ул,15",Ивановская область, Иваново, Октябрьский, Громобоя ,15,57.0109264,40.9762765,1600000
3975.590758,68,35,11,,2,False,6,2010,9,2,,3,5,,False,True,False,,,,,,,False,376," Иваново,  Октябрьский район, Минеевская 1-я ул,4",Ивановская область, Иваново, Октябрьский, Минеевская 1-я ,4,57.0328822,40.9682838,3550000
3607.21124,21,13,6,,1,False,5,1975,5,2,,3,5,,False,True,False,,,,,,,False,377," Иваново,  Ленинский район, Чапаева 2-я ул,65",Ивановская область, Иваново, Ленинский, Чапаева 2-я ,65,56.970941,41.0062721,990000
2758.945405,79,58,8,,3,False,1,1957,2,1,,1,5,,True,False,False,,,,,,,False,378," Иваново,  Ленинский район, Полевая 1-я ул,82",Ивановская область, Иваново, Ленинский, Полевая 1-я ,82,56.972635,40.9775214,1900000
4224.782052,44,30,5,,2,False,5,,5,,,,,,False,False,False,,,,,,,False,379," Иваново,  Ленинский район, Строителей пр-кт,84",Ивановская область, Иваново, Ленинский, Строителей пр-кт,84,56.964451,41.006632,1600000
2896.338098,30,18,6,,1,False,1,,5,,,,,,False,False,False,,,,,,,False,380," Иваново,  Октябрьский район, Гагарина ул,2 /м-н Магнит",Ивановская область, Иваново, Октябрьский, Гагарина ,2/м-нМагнит,57.0225675,40.9607247,1280000
2265.468185,66,46,11,,1,False,2,,2,,,,,,False,False,False,,,,,,,False,381," Иваново,  Фрунзенский район, Павленко ул,24 /школа 68",Ивановская область, Иваново, Фрунзенский, Павленко ,24/школа68,56.9790553,40.9544629,600000
1516.604557,74,58,8,,4,False,3,1985,9,2,,3,5,,True,True,False,,,,,,,False,382," Иваново,  Фрунзенский район, Поэта Майорова ул,16",Ивановская область, Иваново, Фрунзенский, Поэта Майорова ,16,56.9836893,40.9746665,3499000
4868.833103,37,17,10,,1,False,11,,17,,,,,,False,False,False,,,,,,,False,383," Иваново,  Октябрьский район, Революционная ул,36",Ивановская область, Иваново, Октябрьский, Революционная ,36,57.0313947,40.9212766,1780000
2113.616884,40,15,10,,1,False,17,,17,,,,,,False,False,False,,,,,,,False,384," Иваново,  Октябрьский район, Карла Маркса ул,4",Ивановская область, Иваново, Октябрьский, Карла Маркса ,4,57.0161915,40.9716018,1576000
2113.616884,40,20,9,,1,False,20,,21,,,,,,False,False,False,,,,,,,False,385," Иваново,  Октябрьский район, Карла Маркса ул,4",Ивановская область, Иваново, Октябрьский, Карла Маркса ,4,57.0161915,40.9716018,1650000
1354.229982,103,42,38,,3,False,11,,18,,,,,,False,False,False,,,,,,,False,386," Иваново,  Ленинский район, Профсоюзная ул,4",Ивановская область, Иваново, Ленинский, Профсоюзная ,4,57.0031029,40.9909373,4650000
2474.344662,45,16,11,,1,False,11,,17,,,,,,False,False,False,,,,,,,False,387," Иваново,  Ленинский район, Полевая 1-я пл",Ивановская область, Иваново, Ленинский, Полевая 1-я пл,,56.9752859,40.978288,1500000
3885.789283,36,15,11,,1,False,8,,9,,,,,,False,False,False,,,,,,,False,388," Иваново,  Ленинский район, Строителей пр-кт,53",Ивановская область, Иваново, Ленинский, Строителей пр-кт,53,56.968836,41.0087679,2200000
3462.358162,64,36,13,,2,False,13,,14,,,,,,False,False,False,,,,,,,False,389," Иваново,  Ленинский район, Московский мкр,15",Ивановская область, Иваново, Ленинский, Московский мкр,15,56.967054,40.985509,2900000
9139.439427,50,34,6,,3,False,3,,5,,,,,,False,False,False,,,,,,,False,390," Иваново,  Советский район, ТЭЦ-3 мкр,11",Ивановская область, Иваново, Советский, ТЭЦ-3 мкр,11,56.9544861,41.1000982,1250000
2716.397927,45,28,6,,2,False,4,,4,,,,,,False,False,False,,,,,,,False,391," Иваново,  Октябрьский район, Академика Мальцева ул",Ивановская область, Иваново, Октябрьский, Академика Мальцева ул,,57.0208598,40.9603857,1500000
4838.843635,40,22,7,,2,False,5,1994,9,2,,3,5,,False,True,False,,,,,,,False,392," Иваново,  Октябрьский район, Революционная ул,16",Ивановская область, Иваново, Октябрьский, Революционная ,16,57.031286,40.9218209,2000000
2627.793564,65,40,8,,3,False,7,,9,,,,,,False,False,False,,,,,,,False,393," Иваново,  Октябрьский район, Боевиков ул,1,корп.А",Ивановская область, Иваново, Октябрьский, Боевиков ,1,57.0206882,40.9669665,2650000
5164.777627,42,17,12,,1,False,14,,17,,,,,,False,False,False,,,,,,,False,394," Иваново,  Октябрьский район, Дюковская ул,27,корп.А",Ивановская область, Иваново, Октябрьский, Дюковская ,27,57.0353706,40.9229154,1450000
3626.208416,63,32,14,,2,False,9,,12,,,,,,False,False,False,,,,,,,False,395," Иваново,  Ленинский район, ",Ивановская область, Иваново, Ленинский, ,,56.9726955,41.0108145,2299000
2512.138895,45,28,6,,2,False,5,1967,5,2,,3,5,,False,True,False,,,,,,,False,396," Иваново,  Октябрьский район, Войкова ул,13",Ивановская область, Иваново, Октябрьский, Войкова ,13,57.0193221,40.9631582,1750000
4433.771781,36,13,13,,1,False,8,,18,,,,,,False,False,False,,,,,,,False,397," Иваново,  Ленинский район, Камвольная 2-я ул",Ивановская область, Иваново, Ленинский, Камвольная 2-я ул,,56.9712298,41.0268471,1290000
4433.771781,55,31,12,,2,False,13,,18,,,,,,False,False,False,,,,,,,False,398," Иваново,  Ленинский район, Камвольная 2-я ул",Ивановская область, Иваново, Ленинский, Камвольная 2-я ул,,56.9712298,41.0268471,1995000
1495.543767,55,43,6,,3,False,1,,5,,,,,,False,False,False,,,,,,,False,399," Иваново,  Октябрьский район, Громобоя ул,32 А",Ивановская область, Иваново, Октябрьский, Громобоя ,32А,57.010219,40.9775149,2330000
5034.985582,72,42,13,,2,False,4,,14,,,,,,False,False,False,,,,,,,False,400," Иваново,  Октябрьский район, Дюковская ул,25",Ивановская область, Иваново, Октябрьский, Дюковская ,25,57.0344665,40.9242812,2780000
6147.827495,48,25,10,,2,False,2,,5,,,,,,False,False,False,,,,,,,False,401," Иваново,  Ленинский район, Кохомское ш,49 /суховка",Ивановская область, Иваново, Ленинский, Кохомское ш,49/суховка,56.9563534,41.039642,1875000
3700.035519,33,24,8,,2,False,4,,7,,,,,,False,False,False,,,,,,,False,402," Иваново,  Советский район, Свободы ул",Ивановская область, Иваново, Советский, Свободы ул,,57.0178089,41.01931,1680000
2241.244104,60,40,8,,3,False,1,,3,,,,,,False,False,False,,,,,,,False,403," Иваново,  Октябрьский район, Дзержинского ул /дом ",Ивановская область, Иваново, Октябрьский, Дзержинского ул /дом ,,57.0166158,40.9615807,2350000
4846.929642,49,19,13,,1,False,3,2010,7,,,3,5,,False,True,False,,,,,,,False,404," Иваново,  Октябрьский район, Авдотьинская ул,28",Ивановская область, Иваново, Октябрьский, Авдотьинская ,28,57.0289067,40.9165606,2080000
3329.134453,44,29,6,,2,False,1,,5,,,,,,False,False,False,,,,,,,False,405," Иваново,  Ленинский район, Куконковых ул,86 /Риат Горка",Ивановская область, Иваново, Ленинский, Куконковых ,86/РиатГорка,56.9746798,41.0075378,1590000
2308.32805,32,23,5,,2,False,3,,3,,,,,,False,False,False,,,,,,,False,406," Иваново,  Фрунзенский район, Радищева ул",Ивановская область, Иваново, Фрунзенский, Радищева ул,,56.9767308,40.9652528,1090000
5193.642263,57,30,10,,2,False,3,1979,9,2,,3,5,,False,True,False,,,,,,,False,407," Иваново,  Ленинский район, Профессиональная ул,35",Ивановская область, Иваново, Ленинский, Профессиональная ,35,56.9509009,40.9821342,1650000
5251.519284,83,43,17,,3,False,3,1980,9,2,,3,5,,False,True,False,,,,,,,False,408," Иваново,  Ленинский район, Профессиональная ул,37",Ивановская область, Иваново, Ленинский, Профессиональная ,37,56.9504252,40.982823,3100000
2072.11475,31,16,6,,1,False,5,,5,,,,,,False,False,False,,,,,,,False,409," Иваново,  Октябрьский район, Пограничный пер,32",Ивановская область, Иваново, Октябрьский, Пограничный пер,32,57.0158039,40.9727723,1550000
2618.807883,76,53,11,,3,False,1,1982,5,2,,3,5,,False,True,False,,,,,,,False,411," Иваново,  Ленинский район, Полевая 1-я ул,33",Ивановская область, Иваново, Ленинский, Полевая 1-я ,33,56.973983,40.978434,3350000
1833.805219,123,65,50,,4,False,8,2008,10,1,,3,5,,False,True,False,,,,,,,False,412," Иваново,  Фрунзенский район, Лежневская ул,114",Ивановская область, Иваново, Фрунзенский, Лежневская ,114,56.9812221,40.9787919,7350000
3095.782727,53,35,10,,2,False,9,,10,,,,,,False,False,False,,,,,,,False,413," Иваново,  Ленинский район, Генерала Хлебникова ул,16а",Ивановская область, Иваново, Ленинский, Генерала Хлебникова ,16а,56.9700234,40.9822916,3000000
3626.208416,62,30,14,,2,False,10,,12,,,,,,False,False,False,,,,,,,False,414," Иваново,  Ленинский район, ",Ивановская область, Иваново, Ленинский, ,,56.9726955,41.0108145,2400000
3626.208416,62,32,14,,2,False,3,,13,,,,,,False,False,False,,,,,,,False,415," Иваново,  Ленинский район, ",Ивановская область, Иваново, Ленинский, ,,56.9726955,41.0108145,2450000
4208.175049,70,42,12,,3,False,10,,10,,,,,,False,False,False,,,,,,,False,416," Иваново,  Ленинский район, Строителей пр-кт,68а",Ивановская область, Иваново, Ленинский, Строителей пр-кт,68а,56.962598,40.99938,3800000
4926.327341,87,50,16,,3,False,3,,5,,,,,,False,False,False,,,,,,,False,417," Иваново,  Октябрьский район, Революционная ул,20А",Ивановская область, Иваново, Октябрьский, Революционная ,20А,57.032216,40.9216603,5250000
2454.438339,52,32,10,,2,False,9,,12,,,,,,False,False,False,,,,,,,False,418," Иваново,  Ленинский район, Лежневская ул,115 /к-тр Лодзь",Ивановская область, Иваново, Ленинский, Лежневская ,115/к-трЛодзь,56.975195,40.9741038,2200000
3363.683977,40,19,9,,1,False,3,,9,,,,,,False,False,False,,,,,,,False,419," Иваново,  Советский район, Сосневская 1-я ул /дк Меланж",Ивановская область, Иваново, Советский, Сосневская 1-я ул /дк Меланж,,56.9876271,41.0240263,1337000
3962.230909,44,28,6,,2,False,3,1966,4,1,,3,5,,False,True,False,,,,,,,False,421," Иваново,  Советский район, Сосневская 11-я ул,66",Ивановская область, Иваново, Советский, Сосневская 11-я ,66,56.998567,41.036717,1440000
5189.61239,50,35,6,,3,False,5,1976,5,2,,3,4,,False,True,False,,,,,,,False,422," Иваново,  Советский район, Маршала Жаворонкова ул,38",Ивановская область, Иваново, Советский, Маршала Жаворонкова ,38,56.9751211,41.0467849,1890000
5609.46211,54,35,8,,2,False,2,1991,5,2,,3,4,,False,True,False,,,,,,,False,423," Иваново,  Октябрьский район, Революционная ул,80",Ивановская область, Иваново, Октябрьский, Революционная ,80,57.036909,40.914375,2150000
3186.864318,61,44,9,,3,False,4,2012,10,2,,3,5,,True,True,False,,,,,,,False,424," Иваново,  Советский район, Сосневская 3-я ул,120",Ивановская область, Иваново, Советский, Сосневская 3-я ,120,56.9900886,41.0223211,3750000
5674.376541,22,12,5,,1,False,3,1972,5,2,,3,5,,False,True,False,,,,,,,False,425," Иваново,  Советский район, Павла Большевикова ул,9",Ивановская область, Иваново, Советский, Павла Большевикова ,9,56.972212,41.052969,1050000
384.442132,65,39,9,,3,False,4,1994,5,2,,3,4,,False,True,False,,,,,,,False,426," Иваново,  Фрунзенский район, Ярославская ул,12",Ивановская область, Иваново, Фрунзенский, Ярославская ,12,56.9975177,40.9650848,3300000
1794.642307,125,78,18,,4,False,9,,10,,,,,,False,False,False,,,,,,,False,427," Иваново,  Фрунзенский район, Рабфаковская ул,29 /Энергоуниверситет",Ивановская область, Иваново, Фрунзенский, Рабфаковская ,29/Энергоуниверситет,57.001276,40.942754,5800000
3121.728524,58,45,6,,3,False,5,,5,,,,,,False,False,False,,,,,,,False,428," Иваново,  Фрунзенский район, Торфяной 2-й пер,21",Ивановская область, Иваново, Фрунзенский, Торфяной 2-й пер,21,56.980002,40.930726,1700000
1418.962279,49,30,7,,2,False,2,,4,,,,,,False,False,False,,,,,,,False,429," Иваново,  Октябрьский район, Фридриха Энгельса пр-кт,57",Ивановская область, Иваново, Октябрьский, Фридриха Энгельса пр-кт,57,57.005572,40.9890569,2800000
1060.101678,42,29,6,,2,False,4,1960,5,1,,3,5,,False,True,False,,,,,,,False,430," Иваново,  Фрунзенский район, Кузнецова ул,48",Ивановская область, Иваново, Фрунзенский, Кузнецова ,48,57.0033914,40.9581087,1800000
4433.771781,54,30,12,,2,False,4,,17,,,,,,False,False,False,,,,,,,False,431," Иваново,  Ленинский район, Камвольная 2-я ул",Ивановская область, Иваново, Ленинский, Камвольная 2-я ул,,56.9712298,41.0268471,1930000
4322.51877,56,39,5,,3,False,1,1967,5,2,,3,4,,False,True,False,,,,,,,False,432," Иваново,  Ленинский район, Шубиных ул,6",Ивановская область, Иваново, Ленинский, Шубиных ,6,56.962766,41.004372,1790000
452.8673634,30,16,6,,1,False,5,1973,5,2,,3,5,,False,True,False,,,,,,,False,433," Иваново,  Фрунзенский район, Ташкентская ул,14",Ивановская область, Иваново, Фрунзенский, Ташкентская ,14,56.9934835,40.9683577,1380000
3321.121395,39,24,6,,2,False,3,1977,5,2,,3,4,,False,True,False,,,,,,,False,434," Иваново,  Ленинский район, Генерала Хлебникова ул,52",Ивановская область, Иваново, Ленинский, Генерала Хлебникова ,52,56.972996,41.0034371,1850000
1176.931284,83,46,9,,3,False,2,1991,5,1,,3,5,,False,True,False,,,,,,,False,435," Иваново,  Фрунзенский район, Строительная ул,10",Ивановская область, Иваново, Фрунзенский, Строительная ,10,57.000518,40.952964,5800000
5527.37045,35,17,12,,1,False,5,,5,,,,,,False,False,False,,,,,,,False,436," Иваново,  Октябрьский район, Минская ул",Ивановская область, Иваново, Октябрьский, Минская ул,,57.0446483,40.9444397,1200000
2677.653058,37,16,11,,1,False,13,,17,,,,,,False,False,False,,,,,,,False,437," Иваново,  Ленинский район, Полевая 2-я ул",Ивановская область, Иваново, Ленинский, Полевая 2-я ул,,56.9737395,40.9811957,1460000
3617.307272,90,50,10,,4,False,3,,3,,,,,,False,False,False,,,,,,,False,438," Иваново,  Советский район, 15-й проезд,5",Ивановская область, Иваново, Советский, 15-й проезд,5,56.985571,41.0271151,1950000
1236.309295,158,90,21,,5,False,5,,6,,,,,,False,False,False,,,,,,,False,439," Иваново,  Ленинский район, Садовая ул,36",Ивановская область, Иваново, Ленинский, Садовая ,36,56.9974621,40.9917895,10100000
2080.408441,95,57,17,,3,False,2,1956,5,1,,7,5,,False,True,False,,,,,,,False,440," Иваново,  Ленинский район, Лежневская ул,109",Ивановская область, Иваново, Ленинский, Лежневская ,109,56.9789916,40.9791653,6050000
2627.793564,87,50,14,,4,False,5,,5,,,,,,False,False,False,,,,,,,False,441," Иваново,  Октябрьский район, Боевиков ул,1",Ивановская область, Иваново, Октябрьский, Боевиков ,1,57.0206882,40.9669665,3600000
4306.796018,66,42,10,,3,False,1,,2,,,,,,False,False,False,,,,,,,False,442," Иваново,  Советский район, Весенняя ул,1 /Меланжевый к-т",Ивановская область, Иваново, Советский, Весенняя ,1/Меланжевыйк-т,56.9795083,41.0345739,1250000
3626.208416,63,48,14,,2,False,7,,17,,,,,,False,False,False,,,,,,,False,443," Иваново,  Ленинский район, ",Ивановская область, Иваново, Ленинский, ,,56.9726955,41.0108145,2090000
4879.828503,47,31,6,,2,False,2,,5,,,,,,False,False,False,,,,,,,False,444," Иваново,  Ленинский район, Текстильщиков пр-кт,8",Ивановская область, Иваново, Ленинский, Текстильщиков пр-кт,8,56.9575294,41.0056724,1990000
1800.629323,57,39,6,,3,False,7,1977,9,2,,3,5,,True,True,False,,,,,,,False,445," Иваново,  Фрунзенский район, Володарского ул,43",Ивановская область, Иваново, Фрунзенский, Володарского ,43,56.9810213,40.9711082,2800000
5110.879394,70,40,10,,3,False,2,,9,,,,,,False,False,False,,,,,,,False,446," Иваново,  Ленинский район, Кавалерийская ул,60а",Ивановская область, Иваново, Ленинский, Кавалерийская ,60а,56.960593,41.022284,3300000
1726.742539,66,39,12,,3,False,1,1989,9,2,,3,4,,True,True,False,,,,,,,False,447," Иваново,  Фрунзенский район, Танкиста Александрова ул,15,корп.4 /ТЦ Тополь",Ивановская область, Иваново, Фрунзенский, Танкиста Александрова ,15,56.9827243,40.9816509,3560000
2571.60001,57,28,11,,2,False,1,,5,,,,,,False,False,False,,,,,,,False,448," Иваново,  Фрунзенский район, ",Ивановская область, Иваново, Фрунзенский, ,,56.9908674,40.9306046,2260000
956.632948,31,12,8,,1,False,8,,10,,,,,,False,False,False,,,,,,,False,449," Иваново,  Фрунзенский район, Маяковского ул",Ивановская область, Иваново, Фрунзенский, Маяковского ул,,56.9888949,40.9754689,1528000
2571.60001,36,15,9,,1,False,1,,5,,,,,,False,False,False,,,,,,,False,450," Иваново,  Фрунзенский район, ",Ивановская область, Иваново, Фрунзенский, ,,56.9908674,40.9306046,1600000
2571.60001,27,16,6,,1,False,3,,3,,,,,,False,False,False,,,,,,,False,451," Иваново,  Фрунзенский район, ",Ивановская область, Иваново, Фрунзенский, ,,56.9908674,40.9306046,1400000
3037.197512,68,36,12,,2,False,3,,17,,,,,,False,False,False,,,,,,,False,452," Иваново,  Ленинский район, Полевая 2-я ул,31 /ул.Генерала Хлебникова",Ивановская область, Иваново, Ленинский, Полевая 2-я ,31/ул.ГенералаХлебникова,56.9712849,40.9871007,2487000
3124.52373,59,41,6,,3,False,2,,5,,,,,,False,False,False,,,,,,,False,453," Иваново,  Фрунзенский район, Кирякиных ул,13 /Перекресток Кирякиных и Ташкентской",Ивановская область, Иваново, Фрунзенский, Кирякиных ,13/ПерекрестокКирякиныхиТашкентской,56.969288,40.9658511,2100000
707.4876468,30,19,6,,1,False,3,1967,5,2,,3,4,,False,True,False,,,,,,,False,454," Иваново,  Фрунзенский район, Королева ул,10",Ивановская область, Иваново, Фрунзенский, Королева ,10,57.0015732,40.9629287,1390000
3980.876593,33,19,6,,1,False,5,1967,5,2,,3,4,,False,True,False,,,,,,,False,455," Иваново,  Советский район, Меланжевая 4-я ул,4",Ивановская область, Иваново, Советский, Меланжевая 4-я ,4,56.988214,41.0349579,1290000
4252.145053,44,28,6,,2,False,4,1985,5,1,,1,1,,True,False,False,,,,,,,False,456," Иваново,  Советский район, Мира ул,5",Ивановская область, Иваново, Советский, Мира ,5,56.9818,41.035583,1670000
4064.30269,43,31,6,,2,False,4,,5,,,,,,False,False,False,,,,,,,False,457," Иваново,  Ленинский район, Строителей пр-кт,116",Ивановская область, Иваново, Ленинский, Строителей пр-кт,116,56.9679671,41.0115708,1930000
1612.334689,62,42,9,,3,False,8,,10,,,,,,False,False,False,,,,,,,False,458," Иваново,  Фрунзенский район, Велижская ул",Ивановская область, Иваново, Фрунзенский, Велижская ул,,56.9829631,40.9664745,2900000
7164.418118,63,39,9,,3,False,3,,9,,,,,,False,False,False,,,,,,,False,459," Иваново,  Ленинский район, Кохомское ш,16 /библиотека",Ивановская область, Иваново, Ленинский, Кохомское ш,16/библиотека,56.9526113,41.056598,2540000
1957.527893,112,54,14,,3,False,5,,6,,,,,,False,False,False,,,,,,,False,460," Иваново,  Ленинский район, Лакина ул,1",Ивановская область, Иваново, Ленинский, Лакина ,1,56.9886614,40.9996294,5500000
3909.497245,36,20,7,,1,False,1,,2,,,,,,False,False,False,,,,,,,False,461," Иваново,  Фрунзенский район, Курьяновская 4-я ул",Ивановская область, Иваново, Фрунзенский, Курьяновская 4-я ул,,57.0151303,40.9159265,950000
4454.341113,46,31,6,,2,False,5,,5,,,,,,False,False,False,,,,,,,False,462," Иваново,  Ленинский район, Текстильщиков пр-кт,109 /Риат Южный",Ивановская область, Иваново, Ленинский, Текстильщиков пр-кт,109/РиатЮжный,56.9580657,40.9868019,1800000
3533.883306,60,35,6,,3,False,1,,5,,,,,,False,False,False,,,,,,,False,463," Иваново,  Ленинский район, Лежневская ул /автовокзал",Ивановская область, Иваново, Ленинский, Лежневская ул /автовокзал,,56.9654488,40.970689,2100000
3109.311657,63,40,9,,3,False,2,,9,,,,,,False,False,False,,,,,,,False,464," Иваново,  Ленинский район, Кудряшова ул,80 /перекресток Хлебникова и Кудряшова",Ивановская область, Иваново, Ленинский, Кудряшова ,80/перекрестокХлебниковаиКудряшова,56.9701163,40.9839871,2800000
3108.236938,31,18,6,,1,False,1,,5,,,,,,False,False,False,,,,,,,False,465," Иваново,  Фрунзенский район, Ташкентская ул,99 /Кирякиных-Ташкентская",Ивановская область, Иваново, Фрунзенский, Ташкентская ,99/Кирякиных-Ташкентская,56.969524,40.9645173,1340000
1178.483379,72,40,9,,3,False,3,1927,5,1,,7,5,,False,True,False,,,,,,,False,466," Иваново,  Октябрьский район, Комсомольская ул,8",Ивановская область, Иваново, Октябрьский, Комсомольская ,8,57.0077269,40.9735063,2850000
1271.01421,67,,,,2,False,19,,20,,,,,,False,False,False,,,,,,,False,467," Иваново,  Ленинский район, 10 Августа ул",Ивановская область, Иваново, Ленинский, 10 Августа ул,,56.9937603,40.9913931,2830000
1850.670865,98,52,14,,3,False,2,2016,17,2,,3,4,,True,True,False,,,,,,,False,468," Иваново,  Фрунзенский район, Парижской Коммуны ул,41",Ивановская область, Иваново, Фрунзенский, Парижской Коммуны ,41,56.998856,40.941021,4250000
3626.208416,79,48,14,,3,False,8,,17,,,,,,False,False,False,,,,,,,False,469," Иваново,  Ленинский район, ",Ивановская область, Иваново, Ленинский, ,,56.9726955,41.0108145,2250000
4787.853316,42,28,6,,2,False,5,,5,,,,,,False,False,False,,,,,,,False,470," Иваново,  Ленинский район, Текстильщиков пр-кт,9а /ул.Шубиных",Ивановская область, Иваново, Ленинский, Текстильщиков пр-кт,9а/ул.Шубиных,56.960454,41.0124549,1680000
930.8794854,79,48,14,,3,False,12,,17,,,,,,False,False,False,,,,,,,False,471," Иваново,  Фрунзенский район, Зверева ул,39",Ивановская область, Иваново, Фрунзенский, Зверева ,39,57.0043478,40.9634236,3850000
2959.155575,56,33,6,,2,False,3,1957,3,1,,7,5,,False,True,False,,,,,,,False,472," Иваново,  Фрунзенский район, Ташкентская ул,89",Ивановская область, Иваново, Фрунзенский, Ташкентская ,89,56.9708859,40.9643963,1450000
4494.533079,53,32,9,,2,False,2,,10,,,,,,False,False,False,,,,,,,False,473," Иваново,  Ленинский район, Куконковых ул,146 / Ашан",Ивановская область, Иваново, Ленинский, Куконковых ,146/Ашан,56.9670595,41.0207301,2499000
5336.484381,38,19,10,,1,False,3,1986,4,2,,3,5,,False,True,False,,,,,,,False,474," Иваново,  Фрунзенский район, Талицкая 2-я ул,6",Ивановская область, Иваново, Фрунзенский, Талицкая 2-я ,6,57.0028214,40.8839657,990000
4666.703681,51,35,6,,2,False,4,,5,,,,,,False,False,False,,,,,,,False,475," Иваново,  Ленинский район, Текстильщиков пр-кт,113в",Ивановская область, Иваново, Ленинский, Текстильщиков пр-кт,113в,56.956348,40.9887541,2080000
3316.547922,72,42,22,,3,False,2,,10,,,,,,False,False,False,,,,,,,False,476," Иваново,  Ленинский район, 30-й мкр,33",Ивановская область, Иваново, Ленинский, 30-й мкр,33,56.9704096,40.9953542,3600000
5555.772702,46,31,6,,2,False,4,1967,5,2,,3,5,,False,True,False,,,,,,,False,477," Иваново,  Советский район, Санаторная 12-я ул,1А",Ивановская область, Иваново, Советский, Санаторная 12-я ,1А,56.973247,41.051787,1680000
1418.086586,33,19,6,,1,False,4,,5,,,,,,False,False,False,,,,,,,False,478," Иваново,  Фрунзенский район, Володарского ул,34А",Ивановская область, Иваново, Фрунзенский, Володарского ,34А,56.9844661,40.970558,1550000
3316.547922,74,34,26,,3,False,2,,10,,,,,,False,False,False,,,,,,,False,479," Иваново,  Ленинский район, 30-й мкр,33",Ивановская область, Иваново, Ленинский, 30-й мкр,33,56.9704096,40.9953542,3600000
3324.221385,64,33,14,,2,False,9,,10,,,,,,False,False,False,,,,,,,False,480," Иваново,  Ленинский район, Московский мкр,12",Ивановская область, Иваново, Ленинский, Московский мкр,12,56.9686689,40.9876263,2970000
1799.585111,20,17,3,,1,False,5,,5,,,,,,False,False,False,,,,,,,False,481," Иваново,  Фрунзенский район, Ташкентская ул,65А",Ивановская область, Иваново, Фрунзенский, Ташкентская ,65А,56.981097,40.9686989,790000
4966.771223,33,18,6,,1,False,2,,5,,,,,,False,False,False,,,,,,,False,482," Иваново,  Ленинский район, Текстильщиков пр-кт,66",Ивановская область, Иваново, Ленинский, Текстильщиков пр-кт,66,56.954602,40.9958208,1570000
1758.934443,26,17,5,,1,False,3,1961,5,1,,3,5,,False,True,False,,,,,,,False,483," Иваново,  Ленинский район, Смирнова ул,87",Ивановская область, Иваново, Ленинский, Смирнова ,87,56.989298,40.996527,1120000
2571.60001,28,20,4,,1,False,2,,3,,,,,,False,False,False,,,,,,,False,484," Иваново,  Фрунзенский район, ",Ивановская область, Иваново, Фрунзенский, ,,56.9908674,40.9306046,1355000
4007.405771,42,36,6,,2,False,1,,5,,,,,,False,False,False,,,,,,,False,485," Иваново,  Ленинский район, Строителей пр-кт",Ивановская область, Иваново, Ленинский, Строителей пр-кт,,56.9633693,40.9940312,1685000
3512.3797,42,32,6,,2,False,2,1967,5,2,,3,5,,False,True,False,,,,,,,False,486," Иваново,  Советский район, Чайковского 2-я ул,14",Ивановская область, Иваново, Советский, Чайковского 2-я ,14,57.015607,41.018479,1955000
2126.095952,36,30,6,,1,False,11,2015,17,2,,3,6,,True,True,False,,,,,,,False,487," Иваново,  Октябрьский район, Ермака ул,10",Ивановская область, Иваново, Октябрьский, Ермака ,10,57.0160255,40.965432,2645000
3911.73901,14,8,3,,1,False,3,,5,,,,,,False,False,False,,,,,,,False,488," Иваново,  Советский район, 14-й проезд,10,корп.2",Ивановская область, Иваново, Советский, 14-й проезд,10,56.9851613,41.0320181,905000
3780.546724,32,19,6,,1,False,5,,5,,,,,,False,False,False,,,,,,,False,489," Иваново,  Советский район, 14-й проезд,6",Ивановская область, Иваново, Советский, 14-й проезд,6,56.985324,41.029822,1285000
1941.094888,50,42,8,,2,False,3,1956,4,1,,1,5,,False,True,False,,,,,,,False,490," Иваново,  Октябрьский район, Октябрьская ул,16",Ивановская область, Иваново, Октябрьский, Октябрьская ,16,57.014478,40.975777,2855000
3686.38745,51,34,5,,3,False,2,,5,,,,,,False,False,False,,,,,,,False,491," Иваново,  Ленинский район, 30-й мкр,21",Ивановская область, Иваново, Ленинский, 30-й мкр,21,56.9677214,40.9991235,2155000
4420.478546,35,25,8,,1,False,13,,18,,,,,,False,False,False,,,,,,,False,492," Иваново,  Ленинский район, Камвольная 2-я ул,23",Ивановская область, Иваново, Ленинский, Камвольная 2-я ,23,56.9714079,41.0268386,1505000
